UNITID,school,CONTROL,LATITUDE,LONGITUD,ADDR,CITY,STABBR,ZIP,CBSA,act_score,pct_admitted,ug_enroll,ft_enroll,pt_enroll,pct_online,pct_instate,pct_outstate,pct_foreign,retention_rate,in_state_tuition,out_state_tuition,avg_tuition
100663,University of Alabama at Birmingham,1,33.505697,-86.799345,Administration Bldg Suite 1070,Birmingham,AL,35294-0110,13820,30,89,13547,10401,3146,19,82,17,1,84,8568,20400,10599.757575757576
100706,University of Alabama in Huntsville,1,34.724557,-86.640449,301 Sparkman Dr,Huntsville,AL,35899,26620,31,74,7569,6223,1346,6,68,31,1,79,9730,22126,13611.575757575758
100724,Alabama State University,1,32.364317,-86.295677,915 S Jackson Street,Montgomery,AL,36104-0271,33860,20,98,3499,3055,444,12,31,68,1,64,8328,16656,14048.242424242424
100751,The University of Alabama,1,33.211875,-87.545978,739 University Blvd,Tuscaloosa,AL,35487-0100,46220,31,79,31685,28124,3561,10,38,62,1,89,10780,30250,22851.4
100830,Auburn University at Montgomery,1,32.36736,-86.177544,7440 East Drive,Montgomery,AL,36117-3596,33860,24,97,4086,3017,1069,13,91,5,4,63,7992,17952,8510.75
100937,Birmingham-Southern College,2,33.513774,-86.850552,900 Arkadelphia Road,Birmingham,AL,35254,13820,28,66,1058,1041,17,0,61,38,1,78,18850,18850,18850
101189,Faulkner University,2,32.384181,-86.21641,5345 Atlanta Hwy,Montgomery,AL,36109-3390,33860,23,65,1922,1305,617,35,79,14,0,64,21500,21500,21500
101435,Huntingdon College,2,32.351034,-86.284366,1500 East Fairview Avenue,Montgomery,AL,36106-2148,33860,25,69,839,792,47,0,69,31,0,72,25995,25995,25995
101480,Jacksonville State University,1,33.822938,-85.765321,700 Pelham Road North,Jacksonville,AL,36265,11500,23,76,8067,6273,1794,15,79,20,0,69,9720,19440,11683.636363636364
101709,University of Montevallo,1,33.10625,-86.865099,Station 6001,Montevallo,AL,35115-6000,13820,26,90,2215,1965,250,3,82,14,4,71,12090,25110,13988.75
101912,Oakwood University,2,34.756344,-86.652705,7000 Adventist Blvd NW,Huntsville,AL,35896,26620,27.010141987829616,72,1378,1255,123,6,11,82,6,73,18974,18974,18974
102049,Samford University,2,33.464128,-86.791799,800 Lakeshore Drive,Birmingham,AL,35229-2240,13820,29,84,3607,3549,58,1,27,72,1,89,34410,34410,34410
102094,University of South Alabama,1,30.696033,-88.178711,307 N University Blvd,Mobile,AL,36688-0002,33660,26,71,8833,7400,1433,7,75,24,1,71,8256,16512,10257.454545454544
102234,Spring Hill College,2,30.694751,-88.138199,4000 Dauphin St,Mobile,AL,36608-1791,33660,21,72,990,948,42,4,38,53,9,79,21100,21100,21100
102368,Troy University,1,31.800672,-85.957094,University Avenue,Troy,AL,36082-0001,45980,25,95,11297,7474,3823,44,78,20,2,74,9312,18624,11212.408163265307
102553,University of Alaska Anchorage,1,61.190163,-149.82619,3211 Providence Drive,Anchorage,AK,99508,11260,27.010141987829616,69,10259,4052,6207,49,92,7,1,69,7224,23072,8344.565656565657
102614,University of Alaska Fairbanks,1,64.85756,-147.823146,1731 South Chandalar Drive,Fairbanks,AK,99775,21820,27,65,5844,2345,3499,50,82,17,1,68,7296,23087,10007.585858585859
102632,University of Alaska Southeast,1,58.384846,-134.638255,11066 Auke Lake Way,Juneau,AK,99801-8697,27940,27.010141987829616,56,1757,477,1280,52,85,14,1,65,7121,22742,9330.030303030304
104151,Arizona State University Campus Immersion,1,33.417721,-111.934383,University Drive and Mill Avenue,Tempe,AZ,85287,38060,27.010141987829616,88,64716,59070,5646,6,59,35,5,86,10710,28800,17445.63829787234
104179,University of Arizona,1,32.232672,-110.950815,1401 E University,Tucson,AZ,85721-0066,46060,29,87,37434,29498,7936,15,49,47,3,84,10990,33739,22127.53125
104586,Embry-Riddle Aeronautical University-Prescott,2,34.616766,-112.449741,3700 Willow Creek Road,Prescott,AZ,86301-3720,39150,29,74,3033,2892,141,1,27,69,3,78,37512,37512,37512
105330,Northern Arizona University,1,35.188449,-111.653724,"1900 S Knoles Dr, Babbitt Administrative Center, Room 200",Flagstaff,AZ,86011-4092,22380,27.010141987829616,78,24162,19918,4244,17,68,32,0,74,10381,16600,12371.08
106245,University of Arkansas at Little Rock,1,34.723254,-92.339778,2801 S University Ave,Little Rock,AR,72204,30780,25,58,5969,3047,2922,46,89,11,0,65,6495,18750,7843.049999999999
106397,University of Arkansas,1,36.070009,-94.176981,Administration Bldg 425,Fayetteville,AR,72701,22220,28,83,24265,21495,2770,6,43,56,1,87,7666,24482,17178.08080808081
106412,University of Arkansas at Pine Bluff,1,34.244031,-92.018683,1200 N University Mail Slot 4789,Pine Bluff,AR,71601,38220,18,68,2484,2093,391,7,66,33,1,63,5130,11640,7300
106458,Arkansas State University,1,35.842388,-90.679988,2105 E. Aggie Road,Jonesboro,AR,72401,27860,26,63,8241,5401,2840,19,80,12,8,75,5232,10800,5958.260869565217
106467,Arkansas Tech University,1,35.293237,-93.13562,"Administration Bldg 200, 1509 N Boulder Ave",Russellville,AR,72801-2222,40780,27.010141987829616,94,8901,5398,3503,24,93,6,1,63,5736,11472,6083.636363636364
106704,University of Central Arkansas,1,35.077945,-92.457672,201 Donaghey Ave,Conway,AR,72035-0001,30780,26,92,8244,6821,1423,5,90,8,2,71,6870,13740,7430.816326530612
107071,Henderson State University,1,34.128155,-93.059703,1100 Henderson Street,Arkadelphia,AR,71999-0001,11660,24,75,2228,1992,236,5,80,19,1,56,5880,8088,6303.757575757575
107141,John Brown University,2,36.189812,-94.560283,2000 W University St,Siloam Springs,AR,72761,22220,29,53,1774,1285,489,12,36,56,8,80,27662,27662,27662
107512,Ouachita Baptist University,2,34.126093,-93.052471,410 Ouachita St,Arkadelphia,AR,71998-0001,11660,27.010141987829616,74,1716,1551,165,2,60,38,1,84,29480,29480,29480
107558,University of the Ozarks,2,35.476278,-93.467221,415 N College Ave,Clarksville,AR,72830,-2,23,55,784,776,8,1,49,32,19,61,24950,24950,24950
107983,Southern Arkansas University Main Campus,1,33.291618,-93.235922,100 E. University,Magnolia,AR,71753,31620,25,63,3160,2637,523,14,72,28,1,64,6750,11970,8211.6
110097,Biola University,2,33.906203,-118.014374,13800 Biola Ave,La Mirada,CA,90639-0001,31080,29,61,3596,3289,307,6,66,26,7,88,44382,44382,44382
110361,California Baptist University,2,33.929321,-117.425619,8432 Magnolia Ave,Riverside,CA,92504-3297,40140,27.010141987829616,64,8252,7314,938,19,92,6,2,79,34918,34918,34918
110404,California Institute of Technology,2,34.137349,-118.125878,1200 E California Blvd,Pasadena,CA,91125,31080,27.010141987829616,4,987,987,0,0,7,20,10,99,56364,56364,56364
110413,California Lutheran University,2,34.224566,-118.878924,60 W Olsen Rd,Thousand Oaks,CA,91360-2787,37100,28,82,2592,2517,75,0,80,17,3,83,45500,45500,45500
110422,California Polytechnic State University-San Luis Obispo,1,35.299513,-120.65731100000001,1 Grand Ave.,San Luis Obispo,CA,93407,42020,27.010141987829616,33,21128,19960,1168,4,78,20,1,95,5742,17622,8166.489795918367
110486,California State University-Bakersfield,1,35.350005,-119.104711,9001 Stockdale Hwy,Bakersfield,CA,93311-1099,12540,27.010141987829616,85,9367,7387,1980,58,97,2,1,75,5742,17622,5982
110495,California State University-Stanislaus,1,37.52577,-120.852511,One University Circle,Turlock,CA,95382-0299,33700,27.010141987829616,95,9198,7355,1843,47,99,0,0,79,5742,17622,5742
110510,California State University-San Bernardino,1,34.182622,-117.323801,5500 University Parkway,San Bernardino,CA,92407-2393,40140,27.010141987829616,91,16858,13649,3209,17,99,1,0,78,5742,17622,5860.8
110529,California State Polytechnic University-Pomona,1,34.057912,-117.821476,3801 W Temple Avenue,Pomona,CA,91768,31080,27.010141987829616,61,26974,23140,3834,27,98,1,1,88,5742,17622,5861.999999999999
110538,California State University-Chico,1,39.729712,-121.844859,First and Normal Sts,Chico,CA,95929-0150,17020,27.010141987829616,85,14462,12908,1554,22,98,1,1,81,5742,17622,5861.999999999999
110547,California State University-Dominguez Hills,1,33.864766,-118.255917,1000 E Victoria St,Carson,CA,90747-0005,31080,27.010141987829616,90,15238,11647,3591,77,99,0,0,70,5742,17622,5742
110556,California State University-Fresno,1,36.811154,-119.744569,5241 N Maple Ave,Fresno,CA,93740,23420,27.010141987829616,97,22187,18516,3671,11,97,1,2,77,5742,17622,5863.224489795918
110565,California State University-Fullerton,1,33.881506,-117.885446,800 N State College Blvd,Fullerton,CA,92831-3599,31080,27.010141987829616,59,35600,27874,7726,16,99,1,0,87,5742,17622,5860.8
110574,California State University-East Bay,1,37.657694,-122.054135,25800 Carlos Bee Blvd,Hayward,CA,94542,41860,27.010141987829616,82,12114,9447,2667,50,96,2,2,80,5742,17622,5984.448979591837
110583,California State University-Long Beach,1,33.782818,-118.11204,1250 Bellflower Blvd,Long Beach,CA,90840-0115,31080,27.010141987829616,47,33897,28353,5544,26,97,1,1,87,5742,17622,5863.224489795918
110592,California State University-Los Angeles,1,34.066927,-118.168965,5151 State University Dr,Los Angeles,CA,90032-8506,31080,27.010141987829616,91,23536,19558,3978,34,98,1,1,73,5742,17622,5861.999999999999
110608,California State University-Northridge,1,34.240126,-118.529319,18111 Nordhoff St,Northridge,CA,91330,31080,27.010141987829616,88,34496,28242,6254,74,97,2,1,82,5742,17622,5982
110617,California State University-Sacramento,1,38.559415,-121.423549,6000 J St,Sacramento,CA,95819-2694,40900,27.010141987829616,94,29451,23473,5978,44,97,2,2,81,5742,17622,5982
110635,University of California-Berkeley,1,37.871918,-122.260463,200 California Hall,Berkeley,CA,94720,41860,27.010141987829616,14,31814,30200,1614,10,70,14,15,96,11442,41196,16401
110644,University of California-Davis,1,38.539667,-121.749567,One Shields Avenue,Davis,CA,95616-8678,40900,27.010141987829616,49,31657,30782,875,0,75,6,19,91,11442,41196,13646
110653,University of California-Irvine,1,33.648434,-117.841248,501 Aldrich Hall,Irvine,CA,92697,31080,27.010141987829616,29,29449,28753,696,12,72,11,16,93,11442,41196,15385.301204819276
110662,University of California-Los Angeles,1,34.07178,-118.442179,405 Hilgard Ave,Los Angeles,CA,90095-1405,31080,27.010141987829616,11,32122,31485,637,14,69,20,11,97,11442,41196,18128.292134831463
110671,University of California-Riverside,1,33.97246,-117.32741,900 University Ave,Riverside,CA,92521,40140,27.010141987829616,65,22868,22071,797,22,96,1,3,88,11442,41196,11748.742268041236
110680,University of California-San Diego,1,32.877749,-117.235866,9500 Gilman Dr,La Jolla,CA,92093,41740,27.010141987829616,34,33343,32327,1016,3,70,14,16,95,11442,41196,16401
110705,University of California-Santa Barbara,1,34.416297,-119.846426,5221 Cheadle Hall,Santa Barbara,CA,93106,42200,27.010141987829616,29,23091,22458,633,0,75,11,13,91,11442,41196,15247.744186046511
110714,University of California-Santa Cruz,1,36.995584,-122.058801,1156 High St,Santa Cruz,CA,95064-1011,42100,27.010141987829616,59,17864,17087,777,32,92,6,2,89,11442,41196,13263.673469387753
110918,California Christian College,2,36.749366,-119.711123,5364 E. Belmont Avenue,Fresno,CA,93727,23420,27.010141987829616,100,14,7,7,36,100,0,0,0,9600,9600,9600
111188,California State University Maritime Academy,1,38.069061,-122.231551,200 Maritime Academy Dr,Vallejo,CA,94590-8181,46700,27.010141987829616,82,880,852,28,0,76,23,1,78,5742,17622,8502
111948,Chapman University,2,33.79302,-117.852518,One University Dr.,Orange,CA,92866,31080,31,60,7714,7156,558,0,64,32,5,92,58250,58250,58250
111966,Charles R Drew University of Medicine and Science,2,33.925658,-118.242791,1731 E 120th St,Los Angeles,CA,90059,31080,27.010141987829616,63,255,164,91,0,100,0,0,59,13656,13656,13656
112075,Concordia University-Irvine,2,33.653665,-117.812305,1530 Concordia West,Irvine,CA,92612-3203,31080,29,81,1584,1484,100,4,69,29,2,76,37990,37990,37990
112260,Claremont McKenna College,2,34.102154,-117.711188,500 E 9th St,Claremont,CA,91711-6400,31080,35,11,1416,1411,5,0,38,42,20,98,57876,57876,57876
113698,Dominican University of California,2,37.981279,-122.512051,50 Acacia Ave,San Rafael,CA,94901-2298,41860,25,93,1249,1134,115,9,85,13,2,81,47190,47190,47190
115755,California State Polytechnic University-Humboldt,1,40.877481,-124.078293,1 Harpst Street,Arcata,CA,95521-8299,21700,27.010141987829616,91,5354,4643,711,34,93,7,0,74,5742,17622,6573.5999999999995
117104,Life Pacific University,2,34.098705,-117.829388,1100 W. Covina Blvd.,San Dimas,CA,91773-3298,31080,27.010141987829616,94,420,358,62,31,75,25,0,52,17400,17400,17400
117751,The Master's University and Seminary,2,34.381755,-118.518193,21726 Placerita Canyon Road,Santa Clarita,CA,91321-1200,31080,27.010141987829616,67,1582,1030,552,35,59,41,0,84,27950,27950,27950
117946,Loyola Marymount University,2,33.97085,-118.415744,One Lmu Drive,Los Angeles,CA,90045-2659,31080,32,46,7127,6945,182,1,57,33,10,90,52310,52310,52310
120254,Occidental College,2,34.127124,-118.210908,1600 Campus Rd,Los Angeles,CA,90041-3392,31080,33,38,1964,1938,26,0,36,58,5,92,57830,57830,57830
120865,Pacific Union College,2,38.570585,-122.440308,One Angwin Ave,Angwin,CA,94508-9707,34900,27.010141987829616,58,825,733,92,0,78,21,1,61,31101,31101,31101
120883,University of the Pacific,2,37.981424,-121.312301,3601 Pacific Ave,Stockton,CA,95211-0197,44700,32,79,3306,3186,120,0,85,15,1,84,51628,51628,51628
121150,Pepperdine University,2,34.037786,-118.707077,24255 Pacific Coast Hwy,Malibu,CA,90263,31080,30,53,3708,3427,281,3,49,43,8,93,59450,59450,59450
121309,Point Loma Nazarene University,2,32.718391,-117.250265,3900 Lomaland Dr,San Diego,CA,92106-2899,41740,30,84,3174,2574,600,4,73,26,1,84,38800,38800,38800
122409,San Diego State University,1,32.77525,-117.071228,5500 Campanile Dr,San Diego,CA,92182-0001,41740,27.010141987829616,38,31321,27810,3511,4,74,24,3,90,5742,17622,8651.387755102041
122436,University of San Diego,2,32.770816,-117.192073,5998 Alcala Park,San Diego,CA,92110-2492,41740,27.010141987829616,53,5702,5544,158,0,52,43,3,92,52120,52120,52120
122597,San Francisco State University,1,37.721224,-122.476799,1600 Holloway Ave,San Francisco,CA,94132,41860,27.010141987829616,93,23424,18629,4795,54,97,2,2,85,5742,17622,5982
122612,University of San Francisco,2,37.776618,-122.450477,2130 Fulton St,San Francisco,CA,94117-1080,41860,31,71,5969,5739,230,4,58,32,10,86,52920,52920,52920
122755,San Jose State University,1,37.336569,-121.880621,One Washington Square,San Jose,CA,95192-0001,41940,27.010141987829616,84,28288,23015,5273,32,97,1,2,89,5742,17622,5863.224489795918
122931,Santa Clara University,2,37.348362,-121.93784,500 El Camino Real,Santa Clara,CA,95053,41940,33,54,5895,5779,116,0,52,39,6,94,55224,55224,55224
123165,Scripps College,2,34.104147,-117.711294,1030 North Columbia Avenue,Claremont,CA,91711-3905,31080,34,30,1095,1090,5,0,43,53,4,97,58224,58224,58224
123554,Saint Mary's College of California,2,37.840731,-122.109031,1928 Saint Marys Road,Moraga,CA,94575,41860,27.010141987829616,70,2199,1989,210,1,84,14,3,88,51568,51568,51568
123572,Sonoma State University,1,38.340274,-122.677066,1801 E Cotati Ave,Rohnert Park,CA,94928-3609,42220,27.010141987829616,94,6587,5732,855,40,97,3,0,83,5742,17622,6098.4000000000005
123952,Southern California Institute of Architecture,2,34.044215,-118.232799,960 E. 3rd Street,Los Angeles,CA,90013-1822,31080,27.010141987829616,65,256,246,10,0,20,13,67,93,47816,47816,47816
123961,University of Southern California,2,34.021281,-118.284169,University Park,Los Angeles,CA,90089,31080,35,13,20790,20206,584,0,43,43,14,96,60446,60446,60446
125727,Westmont College,2,34.450151,-119.662517,955 La Paz Rd,Santa Barbara,CA,93108-1089,42200,31,79,1238,1233,5,0,67,30,2,85,47450,47450,47450
126182,Adams State University,1,37.473636,-105.879642,208 Edgemont Blvd,Alamosa,CO,81101,-2,23,100,1835,1173,662,21,57,42,0,59,5976,14229,9477.272727272728
126562,University of Colorado Denver/Anschutz Medical Campus,1,39.745149,-104.837722,"1380 Lawrence Street, Lawrence Street Center, Suite 1400",Denver,CO,80217-3364,19740,28,72,14289,8414,5875,15,83,16,1,75,8160,25152,10906.18181818182
126580,University of Colorado Colorado Springs,1,38.892735,-104.800296,1420 Austin Bluffs Parkway,Colorado Springs,CO,80918,17820,27.010141987829616,95,10002,7461,2541,8,77,22,1,67,9338,20566,11833.11111111111
126614,University of Colorado Boulder,1,40.008781,-105.270823,Regent Drive at Broadway,Boulder,CO,80309-0017,14500,31,80,30886,28463,2423,7,50,48,2,87,10806,36554,23417.26530612245
126775,Colorado School of Mines,1,39.751443,-105.223364,1500 Illinois St,Golden,CO,80401,19740,33,57,5487,5200,287,0,55,42,3,91,17160,38460,26382.680412371134
126818,Colorado State University-Fort Collins,1,40.574805,-105.080732,102 Administration Building,Fort Collins,CO,80523-0100,22660,29,90,24954,20016,4938,7,65,34,0,86,9709,28991,16331.101010101009
127060,University of Denver,2,39.678005,-104.963259,2199 S. University Blvd,Denver,CO,80208,19740,31,64,5867,5436,431,4,27,67,3,84,53640,53640,53640
127185,Fort Lewis College,1,37.275939,-107.867422,1000 Rim Drive,Durango,CO,81301-3999,20420,23,93,3449,2914,535,4,36,64,1,54,7056,17712,13875.84
127556,Colorado Mesa University,1,39.080643,-108.553275,1100 North Avenue,Grand Junction,CO,81501-3122,24300,26,80,8712,6614,2098,7,82,17,1,72,8020,21342,10307.61616161616
127565,Metropolitan State University of Denver,1,39.744202,-105.00504,Speer Blvd and Colfax Ave,Denver,CO,80217-3362,19740,24,89,16515,9851,6664,21,98,2,0,63,8280,25761,8629.62
127653,Naropa University,2,40.014235,-105.266987,2130 Arapahoe Ave,Boulder,CO,80302-6697,14500,27.010141987829616,100,325,287,38,13,55,38,7,54,34400,34400,34400
127741,University of Northern Colorado,1,40.410855,-104.692777,Carter Hall - Rm 4000,Greeley,CO,80639,24540,27,91,7357,5948,1409,6,84,15,0,69,8127,21246,10114.727272727272
128106,Colorado State University Pueblo,1,38.30859,-104.579033,2200 Bonforte Blvd,Pueblo,CO,81001-4901,39380,25,99,3928,2589,1339,7,80,19,1,63,6539,13193,7816.030303030303
128391,Western Colorado University,1,38.549936,-106.919132,1 Western Way,Gunnison,CO,81231,-2,26,91,3241,1645,1596,17,65,34,0,74,6816,18600,10863.030303030304
128498,Albertus Magnus College,2,41.332519,-72.923848,700 Prospect St,New Haven,CT,06511-1189,35300,27.010141987829616,82,1031,918,113,32,78,17,5,64,35442,35442,35442
128744,University of Bridgeport,2,41.164741,-73.190166,126 Park Avenue,Bridgeport,CT,06604-5620,14860,27.010141987829616,73,1873,1422,451,18,48,45,6,55,32860,32860,32860
128771,Central Connecticut State University,1,41.692502,-72.765991,1615 Stanley St,New Britain,CT,06050,25540,26,75,7748,6071,1677,2,93,5,2,72,6162,18436,6788.224489795917
128902,Connecticut College,2,41.379833,-72.107321,270 Mohegan Avenue,New London,CT,06320-4196,35980,33,41,1829,1811,18,0,14,79,6,86,60420,60420,60420
129020,University of Connecticut,1,41.809098,-72.249948,352 Mansfield Road,Storrs,CT,06269,25540,33,56,18567,17951,616,1,62,34,4,92,15030,37698,23058.25
129215,Eastern Connecticut State University,1,41.721673,-72.218753,83 Windham St,Willimantic,CT,06226,49340,27.010141987829616,73,4145,3476,669,0,86,13,1,77,6162,18436,7773.737373737373
129242,Fairfield University,2,41.157673,-73.255903,1073 N Benson Rd,Fairfield,CT,06824-5195,14860,31,56,4603,4486,117,0,16,83,1,89,52070,52070,52069.99999999999
129525,University of Hartford,2,41.798591,-72.715213,200 Bloomfield Ave,West Hartford,CT,06117-1599,25540,29,79,4003,3681,322,2,46,50,3,77,41704,41704,41704
129774,Mitchell College,2,41.328013,-72.09523,437 Pequot Avenue,New London,CT,06320,35980,27.010141987829616,78,526,493,33,0,65,34,1,64,33620,33620,33620
129941,University of New Haven,2,41.291314,-72.961472,300 Boston Post Road,West Haven,CT,06516-1916,35300,29,94,5023,4718,305,4,41,58,1,76,41370,41370,41370
130226,Quinnipiac University,2,41.418915,-72.894117,Mt Carmel Ave,Hamden,CT,06518,35300,27.010141987829616,88,6298,5985,313,0,29,69,2,87,48680,48680,48680
130253,Sacred Heart University,2,41.220893,-73.243332,5151 Park Ave,Fairfield,CT,06825-1000,14860,27.010141987829616,66,6761,6071,690,3,22,77,1,86,44960,44960,44960
130314,University of Saint Joseph,2,41.781041,-72.72965,1678 Asylum Avenue,West Hartford,CT,06117,25540,27.010141987829616,78,906,852,54,1,92,8,1,77,40826,40826,40826
130493,Southern Connecticut State University,1,41.333225,-72.947897,501 Crescent Street,New Haven,CT,06515-1355,35300,27.010141987829616,83,6800,5644,1156,8,91,9,0,72,6162,18436,7266.66
130590,Trinity College,2,41.747451,-72.690882,300 Summit St,Hartford,CT,06106-3100,25540,33,38,2159,2118,41,0,15,72,12,91,58610,58610,58610
130697,Wesleyan University,2,41.554665,-72.657146,45 Wyllys Avenue,Middletown,CT,06459,25540,34,19,3385,3238,147,3,9,81,10,95,61449,61449,61449
130776,Western Connecticut State University,1,41.400365,-73.444264,181 White Street,Danbury,CT,06810-6826,14860,27.010141987829616,85,4172,3440,732,3,71,29,0,69,6162,18436,9721.46
130794,Yale University,2,41.311158,-72.926688,Woodbridge Hall,New Haven,CT,06520,35300,35,5,6536,6532,4,0,5,79,14,98,59950,59950,59950
130934,Delaware State University,1,39.187173,-75.54053,1200 N. Dupont Highway,Dover,DE,19901,20100,27.010141987829616,59,4399,3766,633,3,40,54,0,75,7038,16960,12737.872340425532
130943,University of Delaware,1,39.679577,-75.752822,104 Hullihen Hall,Newark,DE,19716,37980,31,72,19410,18006,1404,5,36,62,1,91,12980,34840,26809.795918367345
131450,Gallaudet University,2,38.907371,-76.993675,"800 Florida Ave, NE",Washington,DC,20002-3695,47900,20,62,1012,911,101,4,1,95,0,80,16512,16512,16512
131469,George Washington University,2,38.89923,-77.048363,"1918 F Street, NW",Washington,DC,20052,47900,34,50,11502,10284,1218,5,1,90,6,91,57894,57894,57894
131496,Georgetown University,2,38.908809,-77.073463,37th and O St NW,Washington,DC,20057-0001,47900,35,12,7598,7213,385,1,2,87,11,98,59784,59784,59783.99999999999
131520,Howard University,2,38.922392,-77.018966,2400 Sixth St NW,Washington,DC,20059,47900,26,35,8964,8419,545,0,1,95,4,91,28450,28450,28450.000000000004
132602,Bethune-Cookman University,2,29.207195,-81.032946,640 Dr Mary McLeod Bethune Blvd,Daytona Beach,FL,32114-3099,19660,18,100,2513,2384,129,0,75,24,1,58,13844,13844,13844
132879,Johnson University Florida,2,28.302547,-81.363053,1011 Bill Beck Blvd,Kissimmee,FL,34744,36740,23,42,149,134,15,1,88,9,3,40,17384,17384,17384
132903,University of Central Florida,1,28.602159,-81.200889,4000 Central Florida Blvd,Orlando,FL,32816,36740,30,36,59996,41846,18150,18,91,8,0,92,4478,19810,5716.949494949495
133492,Eckerd College,2,27.715798,-82.687043,4200 54th Ave S,Saint Petersburg,FL,33711-4700,45300,27.010141987829616,70,2036,1981,55,0,16,80,4,81,47044,47044,47044
133553,Embry-Riddle Aeronautical University-Daytona Beach,2,29.189903,-81.048367,1 Aerospace Blvd.,Daytona Beach,FL,32114-3900,19660,29,72,8916,6557,2359,0,30,63,5,80,37512,37512,37512
133650,Florida Agricultural and Mechanical University,1,30.428504,-84.290226,1500 S Martin Luther King Jr Blvd,Tallahassee,FL,32307,45220,23,35,7301,6218,1083,0,67,32,0,89,3152,14524,6827.79797979798
133711,Flagler College,2,29.892733,-81.314887,74 King Street,Saint Augustine,FL,32084,27260,25,74,2641,2552,89,1,47,47,3,70,20540,20540,20540
133809,Florida College,2,28.034936,-82.383289,119 N Glen Arven Ave,Temple Terrace,FL,33617,45300,27,83,535,522,13,0,32,68,1,71,17060,17060,17060
133872,AdventHealth University,2,28.576142,-81.367687,671 Winyah Drive,Orlando,FL,32803,36740,27.010141987829616,90,1144,391,753,21,82,18,0,54,19440,19440,19440
133881,Florida Institute of Technology,2,28.065815,-80.622893,150 West University Boulevard,Melbourne,FL,32901-6975,37340,30,66,3491,3085,406,0,41,49,10,82,42346,42346,42346
134097,Florida State University,1,30.440756,-84.291921,222 S. Copeland Street,Tallahassee,FL,32306-1037,45220,30,37,33593,30153,3440,5,84,16,1,94,4640,19084,6951.040000000001
134130,University of Florida,1,29.64629,-82.347911,Tigert Hall,Gainesville,FL,32611,23540,33,30,34876,31337,3539,5,80,15,5,97,4477,25694,7827.052631578948
135726,University of Miami,2,25.72126,-80.278662,University of Miami,Coral Gables,FL,33146,33100,33,28,12089,11535,554,2,26,65,8,93,53112,53112,53112
136172,University of North Florida,1,30.27194,-81.509144,1 UNF Drive,Jacksonville,FL,32224-7699,27260,26,77,14167,10446,3721,16,93,5,0,79,3996,16799,4649.214285714285
136330,Palm Beach Atlantic University,2,26.7044,-80.05247,901 S. Flagler Drive,West Palm Beach,FL,33401,33100,26,90,2837,2136,701,5,46,50,3,71,33538,33538,33538
136950,Rollins College,2,28.592787,-81.349239,1000 Holt Avenue,Winter Park,FL,32789-4499,36740,27.010141987829616,49,2510,2427,83,0,47,43,8,83,54740,54740,54740
137351,University of South Florida,1,28.061458,-82.413232,4202 East Fowler Ave,Tampa,FL,33620-9951,45300,29,49,38011,29197,8814,17,79,13,7,90,4559,15473,6101.195652173913
137546,Stetson University,2,29.035475,-81.300746,421 N Woodland Blvd,DeLand,FL,32723,19660,29,92,2876,2781,95,1,75,19,6,72,50440,50440,50440
137564,Southeastern University,2,28.029733,-81.918382,1000 Longfellow Blvd,Lakeland,FL,33801-6034,29460,25,45,8118,4589,3529,20,47,50,0,70,27320,27320,27320
137962,Trinity College of Florida,2,28.194732,-82.678318,2430 Welbilt Boulevard,Trinity,FL,34655-4401,45300,27,47,204,161,43,40,94,6,0,53,15200,15200,15200
138275,Warner University,2,27.825751,-81.599972,13895 Hwy 27,Lake Wales,FL,33859-8797,29460,23,53,782,710,72,21,89,7,4,46,24500,24500,24500
138558,Abraham Baldwin Agricultural College,1,31.481889,-83.528281,2802 Moore Hwy,Tifton,GA,31793-2601,45700,22,75,3814,2407,1407,11,85,15,0,65,2563,9469,3598.8999999999996
138761,Andrew College,2,31.772321,-84.795021,501College St,Cuthbert,GA,39840-5550,-2,21,51,272,200,72,17,80,18,2,56,18214,18214,18214
138947,Clark Atlanta University,2,33.747628,-84.412584,"223 James P Brawley Drive, SW",Atlanta,GA,30314-4391,12060,20,58,3390,3224,166,1,22,78,0,70,21308,21308,21308
139144,Berry College,2,34.290414,-85.189202,2277 Martha Berry Hwy NW,Mount Berry,GA,30149,40660,30,70,2172,2157,15,0,73,26,0,85,38430,38430,38430
139199,Brenau University,2,34.303117,-83.821513,500 Washington Street SE,Gainesville,GA,30501-3668,23580,25,89,1427,927,500,45,86,13,1,51,31000,31000,31000
139205,Brewton-Parker College,2,32.185718,-82.586136,201 David-Eliza Fountain Circle,Mount Vernon,GA,30445,47080,23,80,893,549,344,7,79,19,2,46,17600,17600,17600
139250,College of Coastal Georgia,1,31.182745,-81.485973,One College Drive,Brunswick,GA,31520-3644,15260,22,97,3232,1661,1571,21,89,9,1,57,2563,9469,3197.224489795918
139311,Clayton  State University,1,33.594079,-84.328174,2000 Clayton State Boulevard,Morrow,GA,30260-0285,12060,27.010141987829616,63,6145,3435,2710,39,95,3,2,65,4064,14786,4392.224489795918
139366,Columbus State University,1,32.50096,-84.94106,4225 University Ave,Columbus,GA,31907-5645,17980,24,79,6403,4274,2129,17,93,5,1,61,4371,15425,4934.979591836734
139393,Covenant College,2,34.965161,-85.375066,14049 Scenic Highway,Lookout Mountain,GA,30750-4164,16860,29,89,872,804,68,0,35,61,3,83,36700,36700,36700
139630,Emmanuel College,2,34.283641,-83.14822,181 Springs St,Franklin Springs,GA,30639,-2,24,78,918,758,160,3,67,24,9,64,21176,21176,21176
139658,Emory University,2,33.790183,-84.325512,201 Dowman Drive,Atlanta,GA,30322,12060,34,13,7130,7028,102,2,11,69,20,95,54660,54660,54660
139719,Fort Valley State University,1,32.537595,-83.89537,1005 State University Dr,Fort Valley,GA,31030-4313,47580,19,72,2666,2236,430,12,71,10,0,67,4064,14786,5387.7037037037035
139755,Georgia Institute of Technology-Main Campus,1,33.77242,-84.394832,225 North Ave,Atlanta,GA,30332-0530,12060,34,16,17461,15252,2209,4,54,35,10,97,10258,31370,18560.47191011236
139764,Georgia Southwestern State University,1,32.054662,-84.217738,800 Georgia Southwestern State University Dr.,Americus,GA,31709-4693,11140,23,86,2466,1521,945,33,90,9,2,54,4064,14786,5038.727272727273
139861,Georgia College & State University,1,33.082787,-83.231962,231 W Hancock Street,Milledgeville,GA,31061,33300,27,88,5586,5045,541,0,99,0,1,78,7508,26688,7508
139931,Georgia Southern University,1,32.426153,-81.784045,1332 Southern Drive,Statesboro,GA,30460-8126,44340,24,91,23527,19307,4220,9,93,6,1,72,4371,15425,5040.939393939393
139940,Georgia State University,1,33.7527,-84.38667,33 gilmer st,Atlanta,GA,30303-3083,12060,27,100,28985,21992,6993,13,84,10,5,75,7158,22389,8778.31914893617
139959,University of Georgia,1,33.956262,-83.374039,Administration Building,Athens,GA,30602,12020,33,40,30166,28223,1943,0,82,17,1,95,9790,28830,13059.494949494949
139968,Gordon State College,1,33.04571,-84.154508,419 College Dr,Barnesville,GA,30204,12060,23,88,3101,1580,1521,31,99,1,0,65,2563,9469,2632.06
140234,LaGrange College,2,33.038564,-85.043113,601 Broad Street,Lagrange,GA,30240-2999,29300,27.010141987829616,75,583,563,20,2,85,15,0,60,32000,32000,32000
140447,Mercer University,2,32.831787,-83.648295,1501 Mercer University Drive,Macon,GA,31207,31420,32,75,4941,4231,710,20,87,11,1,86,29024,29024,29024
140720,Paine College,2,33.469545,-81.993225,1235 15th St,Augusta,GA,30901-3182,12260,27.010141987829616,52,251,209,42,0,42,48,10,63,12706,12706,12706
140818,Piedmont University,2,34.566042,-83.542126,1021 Central Ave,Demorest,GA,30535-0010,18460,25,67,1255,1117,138,7,85,14,1,76,28120,28120,28120
140872,Reinhardt University,2,34.319756,-84.554264,7300 Reinhardt Circle,Waleska,GA,30183-2981,12060,27.010141987829616,70,1096,993,103,8,86,10,5,61,25180,25180,25180
140951,Savannah College of Art and Design,2,32.072964,-81.09395,342 Bull St,Savannah,GA,31402-3146,42340,27.010141987829616,81,12772,10536,2236,6,18,70,12,81,38340,38340,38340
140988,Shorter University,2,34.257543,-85.196529,315 Shorter Ave,Rome,GA,30165,40660,24,81,1332,1113,219,20,85,15,0,68,22380,22380,22380
141060,Spelman College,2,33.745279,-84.411527,350 Spelman Lane SW,Atlanta,GA,30314-4399,12060,27.010141987829616,51,2417,2363,54,0,24,75,1,91,25249,25249,25249
141264,Valdosta State University,1,30.847402,-83.289282,1500 N Patterson St,Valdosta,GA,31698,46660,23,76,8760,6605,2155,20,81,19,0,56,4371,15426,6471.449999999999
141334,University of West Georgia,1,33.573621,-85.097762,1601 Maple St,Carrollton,GA,30118-0001,12060,24,70,9538,6781,2757,24,96,4,1,69,4371,15426,4813.200000000001
141565,University of Hawaii at Hilo,1,19.701189,-155.080847,200 W Kawili St,Hilo,HI,96720-4091,25900,22,92,2763,1975,788,50,65,33,2,71,7344,20304,11708.081632653062
141574,University of Hawaii at Manoa,1,21.298598,-157.818979,2500 Campus Road,Honolulu,HI,96822-2217,46520,27,70,14120,11279,2841,46,52,44,3,80,11304,33336,21402
141981,University of Hawaii-West Oahu,1,21.35531,-158.056403,91-1001 Farrington Highway,Kapolei,HI,96707-4507,46520,22,95,3008,1641,1367,81,97,3,0,62,7344,20304,7732.8
142115,Boise State University,1,43.604284,-116.203301,1910 University Dr,Boise,ID,83725,14260,27.010141987829616,83,22404,13270,9134,16,49,50,0,76,5532,22452,14077.454545454544
142285,University of Idaho,1,46.727406,-117.014167,875 Perimeter Drive MS 2282,Moscow,ID,83844-2282,34140,28,81,8631,6372,2259,6,61,30,6,75,6182,25418,12523.538461538461
142294,The College of Idaho,2,43.652284,-116.677992,2112 Cleveland Blvd,Caldwell,ID,83605-4432,14260,30,56,1119,1104,15,0,58,29,13,79,33000,33000,33000
142461,Northwest Nazarene University,2,43.562411,-116.565783,623 S. University Blvd.,Nampa,ID,83686-5897,14260,26,88,1323,1042,281,14,56,43,1,74,33740,33740,33740
143084,Augustana College,2,41.502365,-90.55057,639 38th St,Rock Island,IL,61201-2296,19340,27.010141987829616,69,2338,2317,21,0,65,19,16,85,46039,46039,46039
143118,Aurora University,2,41.753631,-88.349023,347 S Gladstone Ave,Aurora,IL,60506-4892,16980,24,86,4114,3779,335,10,77,23,0,78,26400,26400,26400
143288,Blackburn College,2,39.287896,-89.870241,700 College Ave,Carlinville,IL,62626,41180,24,66,414,405,9,6,74,21,0,67,25570,25570,25570
143358,Bradley University,2,40.696896,-89.616786,1501 W BRADLEY AVE,Peoria,IL,61625-0001,37900,30,76,4331,4215,116,0,83,16,1,87,35940,35940,35940
144281,Columbia College Chicago,2,41.874261,-87.624667,600 South Michigan Ave,Chicago,IL,60605-1996,16980,27.010141987829616,96,6493,6124,369,0,53,45,2,62,26610,26610,26610
144351,Concordia University-Chicago,2,41.898696,-87.809482,7400 Augusta,River Forest,IL,60305-1499,16980,27.010141987829616,88,1438,1222,216,22,61,38,0,57,33310,33310,33310
144740,DePaul University,2,41.877618,-87.62724,1 E Jackson Blvd,Chicago,IL,60604,16980,27.010141987829616,69,14294,12950,1344,16,62,37,1,84,41361,41361,41361
144892,Eastern Illinois University,1,39.479843,-88.175658,600 Lincoln Avenue,Charleston,IL,61920,16660,23,72,6903,3984,2919,10,89,9,2,74,9207,11461,9414
144971,Eureka College,2,40.71482,-89.269624,300 E. College Avenue,Eureka,IL,61530,37900,23,87,476,459,17,0,82,17,2,60,27450,27450,27450
145336,Governors State University,1,41.449103,-87.716441,1 University Pky,University Park,IL,60484,16980,22,52,2709,1659,1050,28,93,5,2,48,7512,15024,7895.265306122449
145372,Greenville University,2,38.894162,-89.40824,315 E. College Ave.,Greenville,IL,62246,41180,20,80,890,808,82,11,50,34,15,70,29260,29260,29260
145600,University of Illinois Chicago,1,41.871837,-87.650503,601 S Morgan,Chicago,IL,60607,16980,31,79,22279,20071,2208,25,89,5,5,81,12253,27020,13038.478723404256
145619,Benedictine University,2,41.777569,-88.097307,5700 College Rd,Lisle,IL,60532-0900,16980,28,80,2185,1837,348,12,65,35,0,67,30773,30773,30773
145637,University of Illinois Urbana-Champaign,1,40.104718,-88.229114,601 E John Street,Champaign,IL,61820-5711,16580,34,60,34779,33481,1298,4,70,15,14,93,14446,34444,17975.058823529413
145691,Illinois College,2,39.7313,-90.246171,1101 West College Ave,Jacksonville,IL,62650-2299,27300,24,75,1097,1069,28,7,73,19,8,76,34752,34752,34752
145813,Illinois State University,1,40.509403,-88.990058,North and School Streets,Normal,IL,61790-1000,14010,27,92,17674,16444,1230,1,95,4,0,83,10932,21136,11344.282828282829
146339,Judson University,2,42.061754,-88.291336,1151 N State St,Elgin,IL,60123-1498,16980,27,62,932,850,82,17,62,30,9,66,28840,28840,28840
146427,Knox College,2,40.943064,-90.373165,2 E South St,Galesburg,IL,61401,23660,31,70,1156,1129,27,0,34,50,14,83,50784,50784,50784
146481,Lake Forest College,2,42.249574,-87.827454,555 N Sheridan Road,Lake Forest,IL,60045-2338,16980,31,64,1661,1641,20,0,45,38,17,87,50100,50100,50100
146612,Lewis University,2,41.605432,-88.079032,One University Parkway,Romeoville,IL,60446-2200,16980,26,71,3907,3253,654,16,85,11,4,75,35262,35262,35262
146676,Lincoln College,2,40.155442,-89.36153,300 Keokuk St,Lincoln,IL,62656,30660,18,74,858,649,209,2,77,14,0,49,18700,18700,18700
146719,Loyola University Chicago,2,42.000765,-87.656872,1032 W. Sheridan Rd,Chicago,IL,60660,16980,32,77,11819,11205,614,3,49,49,2,88,46410,46410,46410
147013,McKendree University,2,38.608154,-89.816822,701 College Rd,Lebanon,IL,62254-1291,41180,27.010141987829616,78,1443,1257,186,15,57,30,13,73,31700,31700,31700
147244,Millikin University,2,39.842612,-88.976298,1184 W Main St,Decatur,IL,62522-2084,19500,27,75,1812,1693,119,1,60,34,6,70,38800,38800,38800
147341,Monmouth College,2,40.914824,-90.63731,700 E Broadway,Monmouth,IL,61462-1998,-2,28,66,755,750,5,0,72,28,1,73,41240,41240,41240
147369,Moody Bible Institute,2,41.897822,-87.633459,820 N LaSalle Blvd,Chicago,IL,60610-3284,16980,27.010141987829616,98,1903,1511,392,24,24,76,0,73,11840,11840,11840
147536,National Louis University,2,41.880093,-87.624699,122 S Michigan Ave,Chicago,IL,60603,16980,27.010141987829616,97,3607,2582,1025,39,89,3,0,61,13419,13419,13419
147660,North Central College,2,41.77576,-88.14279,30 N Brainard St,Naperville,IL,60540,16980,28,68,2404,2352,52,0,73,22,0,77,42026,42026,42026
147679,North Park University,2,41.975268,-87.709948,3225 W Foster Ave,Chicago,IL,60625-4895,16980,26,67,1849,1699,150,5,75,19,5,70,32380,32380,32380
147776,Northeastern Illinois University,1,41.980399,-87.718983,5500 N Saint Louis Ave,Chicago,IL,60625-4699,16980,27.010141987829616,62,4608,2657,1951,32,97,2,1,61,10091,20182,10294.858585858585
148016,Principia College,2,38.948835,-90.350285,1 Maybeck Place,Elsah,IL,62028-9799,41180,28,84,321,316,5,0,5,65,30,81,29970,29970,29970
148487,Roosevelt University,2,41.876055,-87.624952,430 S Michigan Ave,Chicago,IL,60605-1394,16980,27,92,2656,2248,408,9,73,24,2,52,31493,31493,31493
148496,Dominican University,2,41.902678,-87.823003,7900 W Division Street,River Forest,IL,60305,16980,27,81,2063,1908,155,5,90,10,0,77,34950,34950,34950
148627,Saint Xavier University,2,41.707199,-87.714749,3700 W 103rd St,Chicago,IL,60655,16980,27.010141987829616,85,3101,2848,253,2,93,7,0,78,33960,33960,33960
148654,University of Illinois Springfield,1,39.729524,-89.616796,One University Plaza,Springfield,IL,62703-5407,44100,27,79,2503,1739,764,48,86,8,5,67,9645,16449,10224.063829787236
149222,Southern Illinois University-Carbondale,1,37.714193,-89.217273,Lincoln Drive,Carbondale,IL,62901-4512,16060,28,95,8147,6754,1393,17,81,17,1,75,9638,9638,9638
149231,Southern Illinois University-Edwardsville,1,38.793949,-89.997779,Il State Rte 157,Edwardsville,IL,62026-1259,41180,26,98,9967,8089,1878,17,82,16,2,74,8579,8579,8579
149772,Western Illinois University,1,40.468086,-90.686899,1 University Circle,Macomb,IL,61455,31380,27.010141987829616,72,5394,4574,820,20,88,9,2,72,8886,8886,8886
150136,Ball State University,1,40.203431,-85.409043,2000 University Ave,Muncie,IN,47306,34620,27,68,14898,13041,1857,6,90,9,0,73,9628,26862,11194.727272727272
150163,Butler University,2,39.8374,-86.172167,4600 Sunset Ave,Indianapolis,IN,46208,26900,31,81,4537,4352,185,0,43,56,1,87,42410,42410,42410
150400,DePauw University,2,39.640904,-86.860363,313 S Locust St,Greencastle,IN,46135-1772,26900,31,65,1724,1700,24,0,35,48,17,88,52900,52900,52900
150534,University of Evansville,2,37.971549,-87.531644,1800 Lincoln Avenue,Evansville,IN,47722,21780,29,75,1796,1520,276,1,61,33,6,78,38600,38600,38600
150604,Franklin College,2,39.478298,-86.047182,101 Branigin Blvd,Franklin,IN,46131-2623,26900,26,95,899,867,32,0,91,9,0,74,34766,34766,34766
150668,Goshen College,2,41.563582,-85.827795,1700 S Main St,Goshen,IN,46526-4794,21140,31,93,749,683,66,1,61,29,0,70,35940,35940,35940
150774,Holy Cross College,2,41.698996,-86.253822,54515 State Road 933 North,Notre Dame,IN,46556-0308,43780,32,86,468,431,37,1,26,69,5,72,32800,32800,32800
151111,Indiana University-Purdue University-Indianapolis,1,39.772948,-86.172217,420 University Blvd,Indianapolis,IN,46202-5143,26900,28,84,19197,15922,3275,10,91,7,1,69,8883,30940,10458.5
151263,University of Indianapolis,2,39.709571,-86.133969,1400 E Hanna Ave,Indianapolis,IN,46227-3697,26900,27.010141987829616,78,4063,3707,356,4,82,14,5,66,31972,31972,31972
151290,Indiana Institute of Technology,2,41.078365,-85.116479,1600 E Washington Blvd,Fort Wayne,IN,46803-1228,23060,27.010141987829616,65,1522,1335,187,0,49,45,6,62,28356,28356,28356
151306,University of Southern Indiana,1,37.962374,-87.677214,8600 University Blvd,Evansville,IN,47712,21780,27,96,7908,5242,2666,9,88,11,1,69,8909,21212,10276
151324,Indiana State University,1,39.469073,-87.407846,210 N 7th St,Terre Haute,IN,47809,45460,27.010141987829616,94,7704,6280,1424,25,81,17,2,61,9318,20582,11271.959183673469
151333,Indiana University-Kokomo,1,40.460062,-86.132048,2300 S Washington St,Kokomo,IN,46902-9003,29020,24,90,2817,2227,590,18,97,2,1,60,7170,20277,7434.787878787879
151342,Indiana University-South Bend,1,41.665324,-86.221991,1700 Mishawaka Ave,South Bend,IN,46615-7111,43780,24,89,3865,2869,996,16,96,3,1,54,7170,20277,7567.181818181818
151351,Indiana University-Bloomington,1,39.16609,-86.526559,107 South Indiana Ave.,Bloomington,IN,47405-7000,14020,32,85,34253,33160,1093,1,54,42,4,90,9913,36932,21733.8125
151360,Indiana University-Northwest,1,41.557324,-87.337249,3400 Broadway,Gary,IN,46408-1197,16980,26,85,3063,2206,857,20,98,2,0,64,7170,20277,7432.139999999999
151379,Indiana University-Southeast,1,38.345191,-85.819985,4201 Grant Line Rd,New Albany,IN,47150,31140,26,90,3514,2412,1102,27,82,18,0,58,7170,20277,9529.26
151388,Indiana University-East,1,39.868707,-84.881923,2325 Chester Blvd,Richmond,IN,47374-1289,39980,25,81,2887,1666,1221,67,67,30,2,61,7170,20277,11223.711340206186
152080,University of Notre Dame,2,41.703058,-86.238959,400 Main Building,Notre Dame,IN,46556,43780,35,15,8973,8956,17,0,6,84,10,98,58336,58336,58336
152318,Rose-Hulman Institute of Technology,2,39.483602,-87.326749,5500 Wabash Avenue,Terre Haute,IN,47803-3920,45460,33,77,2081,2058,23,0,27,67,5,91,49479,49479,49479
152390,Saint Mary's College,2,41.707274,-86.256947,133 Le Mans Hall,Notre Dame,IN,46556,43780,30,83,1402,1368,34,0,36,63,0,81,47000,47000,47000
152530,Taylor University,2,40.456246,-85.497034,236 W Reade Ave,Upland,IN,46989-1001,31980,27.010141987829616,73,1944,1670,274,11,44,52,4,89,36270,36270,36270
152600,Valparaiso University,2,41.462239,-87.040172,US Highway 30 and Sturdy Road,Valparaiso,IN,46383,16980,27.010141987829616,93,2507,2472,35,0,47,51,2,81,43400,43400,43400
152673,Wabash College,2,40.037588,-86.906,301 West Wabash Avenue,Crawfordsville,IN,47933-0352,18820,29,62,840,837,3,0,72,26,2,85,45000,45000,45000
153001,Buena Vista University,2,42.642255,-95.208529,610 W 4th St,Storm Lake,IA,50588,44740,25,66,1506,1289,217,44,60,39,0,73,37518,37518,37518
153241,Divine Word College,2,42.441721,-90.934578,102 Jacoby Dr SW,Epworth,IA,52045,20220,27.010141987829616,100,67,67,0,0,33,0,67,100,14000,14000,14000
153250,Dordt University,2,43.082527,-96.166562,700 7th St SE,Sioux Center,IA,51250-1606,-2,28,73,1535,1403,132,8,30,59,10,83,33010,33010,33010
153269,Drake University,2,41.60129,-93.652163,2507 University Avenue,Des Moines,IA,50311-4505,19780,31,69,2902,2776,126,0,31,66,3,84,45734,45734,45734
153366,Graceland University-Lamoni,2,40.615966,-93.924893,1 University Place,Lamoni,IA,50140,-2,24,67,957,877,80,4,19,71,0,66,31250,31250,31250
153384,Grinnell College,2,41.747952,-92.722094,1121 Park Street,Grinnell,IA,50112-1690,-2,34,11,1748,1718,30,0,7,72,20,93,58156,58156,58156
153658,University of Iowa,1,41.661935,-91.536425,101 Jessup Hall,Iowa City,IA,52242-1316,26980,29,86,21608,19748,1860,4,60,39,1,88,8356,30319,17008.090909090908
153825,Loras College,2,42.503908,-90.679023,1450 Alta Vista,Dubuque,IA,52004-0178,20220,27.010141987829616,72,1296,1185,111,0,30,67,3,78,33500,33500,33500
153834,Luther College,2,43.312304,-91.802809,700 College Drive,Decorah,IA,52101-1045,-2,29,76,1744,1717,27,0,26,62,12,84,46130,46130,46130
153861,Maharishi International University,2,41.017781,-91.967306,1000 North 4th Street,Fairfield,IA,52557,21840,27.010141987829616,95,655,320,335,78,16,76,0,79,16000,16000,16000
154004,Morningside University,2,42.473891,-96.359464,1501 Morningside Ave,Sioux City,IA,51106-1751,43580,27.010141987829616,74,1245,1160,85,5,45,46,9,66,33760,33760,33760
154013,Mount Mercy University,2,42.001931,-91.650991,1330 Elmhurst Dr NE,Cedar Rapids,IA,52402-4797,16300,27.010141987829616,81,1290,1013,277,12,86,14,0,78,35540,35540,35540
154095,University of Northern Iowa,1,42.514923,-92.459703,1227 W 27th St,Cedar Falls,IA,50614-0005,47940,26,86,7967,7290,677,4,90,9,1,81,7780,18480,8752.727272727272
154235,Saint Ambrose University,2,41.54065,-90.579854,518 W Locust St,Davenport,IA,52803-2898,19340,27,72,2228,2121,107,2,35,61,4,75,33290,33290,33290
154350,Simpson College,2,41.365503,-93.563471,701 North C St,Indianola,IA,50125,19780,27,91,1172,1073,99,5,71,29,0,70,43124,43124,43124
154493,Upper Iowa University,2,42.838283,-91.799543,605 Washington St,Fayette,IA,52142-1857,-2,24,65,2510,1289,1221,60,27,70,4,55,32589,32589,32589
154527,Wartburg College,2,42.7277,-92.483387,100 Wartburg Blvd.,Waverly,IA,50677-0903,47940,26,83,1516,1473,43,0,69,27,4,74,45200,45200,45200
154721,Bethany College,2,38.580598,-97.67367,335 E Swensson St,Lindsborg,KS,67456-1897,32700,23,72,737,687,50,0,32,66,2,38,29200,29200,29200
155025,Emporia State University,1,38.414784,-96.179021,1 Kellogg Circle,Emporia,KS,66801-5415,21380,27.010141987829616,88,2948,2676,272,9,90,8,2,74,5278,13195,5924.285714285714
155317,University of Kansas,1,38.958549,-95.247567,"Strong Hall, 1450 Jayhawk Blvd, Room 230",Lawrence,KS,66045,29940,29,92,19158,16618,2540,5,57,40,3,85,10092,26960,17047.876288659794
155399,Kansas State University,1,39.188648,-96.581077,"919 Mid-Campus Drive, Anderson Hall",Manhattan,KS,66506,31740,27.010141987829616,96,15619,13936,1683,8,77,21,1,86,9489,25560,12932.785714285714
155414,Kansas Wesleyan University,2,38.813795,-97.607973,100 E. Claflin Ave.,Salina,KS,67401-6146,41460,27.010141987829616,68,760,718,42,2,50,50,0,57,31020,31020,31020
155627,Ottawa University-Ottawa,2,38.603173,-95.264187,1001 South Cedar,Ottawa,KS,66067-3399,36840,19,67,786,728,58,0,38,60,0,55,33380,33380,33380
155812,University of Saint Mary,2,39.279396,-94.906743,4100 S 4th St,Leavenworth,KS,66048-5082,28140,27.010141987829616,81,858,738,120,3,39,60,0,52,30580,30580,30580
155900,Southwestern College,2,37.248608,-96.975405,100 College Street,Winfield,KS,67156-2499,49060,22,69,1164,658,506,48,27,69,4,49,34750,34750,34750
156125,Wichita State University,1,37.718882,-97.292361,1845 N. Fairmount,Wichita,KS,67260-0124,48620,26,91,12078,8529,3549,21,74,22,4,69,6843,16208,8989.145833333332
156213,Asbury University,2,37.862029,-84.662606,1 Macklem Dr,Wilmore,KY,40390-1198,30460,27.010141987829616,77,1472,1127,345,13,55,41,5,84,32084,32084,32084
156286,Bellarmine University,2,38.219279,-85.704997,2001 Newburg Rd,Louisville,KY,40205-0671,31140,27,86,2407,2291,116,0,71,28,2,77,42970,42970,42970
156295,Berea College,2,37.57202,-84.292893,101 Chestnut Street,Berea,KY,40404-2182,40080,28,33,1468,1432,36,1,39,55,6,84,42900,42900,42900
156356,Brescia University,2,37.769041,-87.111639,717 Frederica St,Owensboro,KY,42301-3023,36980,25,53,752,619,133,29,70,22,7,66,26000,26000,26000
156408,Centre College,2,37.645709,-84.779392,625 W Walnut St,Danville,KY,40422-1394,19220,33,68,1320,1320,0,0,60,37,4,89,46000,46000,46000
156620,Eastern Kentucky University,1,37.740845,-84.300796,521 Lancaster Ave,Richmond,KY,40475-3102,40080,24,98,11684,9250,2434,25,88,12,0,74,9452,19724,10684.64
157030,Kentucky Mountain Bible College,2,37.603443,-83.438765,855 Hwy 541,Jackson,KY,41339,-2,28,48,81,53,28,28,29,71,0,63,8850,8850,8850
157058,Kentucky State University,1,38.201427,-84.855402,400 East Main Street,Frankfort,KY,40601-2355,23180,27.010141987829616,65,2135,1339,796,31,32,67,0,70,7700,11550,10305.555555555555
157076,Kentucky Wesleyan College,2,37.744489,-87.119658,3000 Frederica Street,Owensboro,KY,42301,36980,24,67,811,757,54,11,62,36,0,55,28400,28400,28400
157085,University of Kentucky,1,38.038911,-84.504747,South Limestone,Lexington,KY,40506-0032,30460,29,94,21900,19829,2071,4,67,32,1,86,11247,30245,17387.767676767675
157289,University of Louisville,1,38.216862,-85.760412,2301 S 3rd St,Louisville,KY,40292-0001,31140,28,75,15634,11450,4184,15,76,23,0,77,12174,28520,15971.555555555555
157386,Morehead State University,1,38.186768,-83.434021,University Blvd,Morehead,KY,40351,-2,27.010141987829616,90,8312,4778,3534,11,84,15,1,70,9082,13726,9785.636363636364
157401,Murray State University,1,36.612419,-88.323629,218 Wells Hall,Murray,KY,42071-3318,34660,27,85,7651,5930,1721,14,62,37,1,75,8040,17316,11506.787878787878
157447,Northern Kentucky University,1,39.029714,-84.463483,Nunn Drive,Highland Heights,KY,41099,17140,26,80,10814,7598,3216,24,69,26,4,70,10008,20064,12760.168421052631
157757,Spalding University,2,38.242407,-85.757725,901 S Fourth Street,Louisville,KY,40203-2188,31140,23,90,765,578,187,25,63,35,2,58,26400,26400,26400
157809,Thomas More University,2,39.022963,-84.568923,333 Thomas More Parkway,Crestview Hills,KY,41017-3495,17140,27.010141987829616,96,1836,1312,524,8,56,41,4,63,33060,33060,33060
157951,Western Kentucky University,1,36.985035,-86.456828,1906 College Heights Blvd,Bowling Green,KY,42101-1000,14540,27.010141987829616,98,14729,11359,3370,14,71,28,0,73,10992,27000,15519.515151515152
158802,Dillard University,2,29.996587,-90.06464,2601 Gentilly Blvd,New Orleans,LA,70122,35380,23,55,1202,1128,74,4,63,37,0,73,17410,17410,17410
159382,Louisiana State University-Alexandria,1,31.178616,-92.414409,8100 Hwy 71 South,Alexandria,LA,71302-9121,10780,22,58,3771,2107,1664,51,95,3,2,57,4984,4984,4984
159391,Louisiana State University and Agricultural & Mechanical College,1,30.414986,-91.178921,156 Thomas Boyd Hall,Baton Rouge,LA,70803-2750,12940,29,71,29273,25344,3929,2,67,32,1,83,8038,8038,8038
159647,Louisiana Tech University,1,32.528297,-92.649963,1310 West Railroad Avenue,Ruston,LA,71272,40820,27,66,10053,7643,2410,3,84,14,2,81,6401,13142,7364
159656,Loyola University New Orleans,2,29.936141,-90.120417,6363 Saint Charles Ave,New Orleans,LA,70118-6143,35380,27.010141987829616,78,3365,3090,275,7,43,53,0,81,41698,41698,41698
159717,McNeese State University,1,30.178187,-93.217222,4205 Ryan St,Lake Charles,LA,70605,29340,24,69,5893,4757,1136,17,88,6,6,69,5147,13185,5660.063829787234
159939,University of New Orleans,1,30.027704,-90.067142,2000 Lakeshore Drive,New Orleans,LA,70148,35380,24,81,6508,4579,1929,11,92,7,1,58,6090,10926,6431.939393939394
159993,University of Louisiana at Monroe,1,32.527748,-92.07374,700 University Avenue,Monroe,LA,71209-0000,33740,24,70,6728,4333,2395,13,90,6,4,69,5788,17888,6544.25
160038,Northwestern State University of Louisiana,1,31.750666,-93.097797,175 Sam Sibley Drive,Natchitoches,LA,71497-0002,35060,22,96,9622,5694,3928,51,98,1,0,64,5180,15968,5288.969696969696
160074,Franciscan Missionaries of Our Lady University,2,30.401379,-91.110587,5414 Brittany Dr,Baton Rouge,LA,70808,12940,23,55,962,475,487,33,100,0,0,79,13812,13812,13812
160612,Southeastern Louisiana University,1,30.514652,-90.468676,548 Ned McGehee Ave.,Hammond,LA,70402,25220,27.010141987829616,99,12459,8324,4135,4,97,2,1,64,5777,18255,6029.080808080808
160621,Southern University and A & M College,1,30.524558,-91.190105,"P.O. Box 9374, Harding Blvd",Baton Rouge,LA,70813,12940,19,59,5837,4493,1344,14,69,30,0,67,4973,4973,4973
160630,Southern University at New Orleans,1,30.026162,-90.044912,6400 Press Drive,New Orleans,LA,70126,35380,27.010141987829616,79,1812,927,885,20,87,13,0,32,4483,13384,5640.13
160658,University of Louisiana at Lafayette,1,30.212191,-92.020165,104 University Circle,Lafayette,LA,70503,29180,24,78,13700,10874,2826,11,95,4,1,75,5407,19135,5961.666666666667
160755,Tulane University of Louisiana,2,29.940069,-90.122144,6823 St. Charles Avenue,New Orleans,LA,70118-5698,35380,33,10,8700,8231,469,3,8,86,5,94,56684,56684,56684
160904,Xavier University of Louisiana,2,29.964162,-90.107307,1 Drexel Drive,New Orleans,LA,70125-1098,35380,26,95,2755,2642,113,2,27,72,1,69,23411,23411,23411
161004,Bowdoin College,2,43.907134,-69.963942,255 Maine Street,Brunswick,ME,04011,38860,27.010141987829616,9,1951,1948,3,0,8,84,9,97,57776,57776,57776
161235,University of Maine at Fort Kent,1,47.250389,-68.589319,23 University Drive,Fort Kent,ME,04743-1292,-2,27.010141987829616,100,1517,443,1074,39,57,21,22,71,7350,11760,8537.307692307691
161253,University of Maine,1,44.899257,-68.669332,168 College Avenue,Orono,ME,04469,12620,30,96,10115,8162,1953,13,56,43,1,76,11640,33240,21021.818181818184
161341,University of Maine at Presque Isle,1,46.672285,-68.016343,181 Main St,Presque Isle,ME,04769-2888,-2,27.010141987829616,100,1573,774,799,40,82,14,4,67,7350,11760,7993.125
161509,Maine College of Art & Design,2,43.655743,-70.261015,522 Congress St.,Portland,ME,04101-3494,38860,27.010141987829616,72,409,390,19,0,15,84,1,64,37960,37960,37960
161518,Saint Joseph's College of Maine,2,43.826314000000004,-70.483373,278 Whites Bridge Rd,Standish,ME,04084-5236,38860,27.010141987829616,81,1066,736,330,31,41,59,0,71,39986,39986,39986
161554,University of Southern Maine,1,43.662863,-70.274247,96 Falmouth St,Portland,ME,04103,38860,24,87,5956,3567,2389,21,75,23,2,65,8064,22041,11344.316326530614
161873,University of Baltimore,1,39.305834,-76.616591,Charles at Mount Royal,Baltimore,MD,21201-5720,12580,20,89,1605,869,736,77,91,8,2,68,7154,20340,8219.535353535353
162210,Washington Adventist University,2,38.986349,-77.000608,7600 Flower Ave,Takoma Park,MD,20912,47900,27.010141987829616,62,690,481,209,5,64,30,5,65,23400,23400,23400
162283,Coppin State University,1,39.311258,-76.658687,2500 West North Avenue,Baltimore,MD,21216-3698,12580,27.010141987829616,48,1845,1353,492,9,78,21,1,57,4741,11266,6125.090909090909
162584,Frostburg State University,1,39.650918,-78.934293,101 Braddock Road,Frostburg,MD,21532-1099,19060,25,86,3680,2888,792,23,84,15,1,70,6834,21320,9028.848484848484
162654,Goucher College,2,39.410175,-76.594843,1021 Dulaney Valley Rd,Baltimore,MD,21204-2794,12580,30,82,1057,1033,24,1,42,55,0,80,48000,48000,48000
163268,University of Maryland-Baltimore County,1,39.256686,-76.711607,1000 Hilltop Circle,Baltimore,MD,21250,12580,30,81,10835,9147,1688,8,90,5,5,87,8878,25068,9730.105263157897
163295,Maryland Institute College of Art,2,39.308792,-76.621033,1300 Mount Royal Avenue,Baltimore,MD,21217-4134,12580,27.010141987829616,86,1540,1485,55,0,25,52,23,86,50160,50160,50160
163453,Morgan State University,1,39.344161,-76.585565,1700 East Cold Spring Lane,Baltimore,MD,21251-0001,12580,20,87,7034,6258,776,4,46,49,5,72,5477,15949,10878.347368421053
163578,Notre Dame of Maryland University,2,39.350612,-76.619739,4701 N Charles St,Baltimore,MD,21210-2476,12580,27.010141987829616,65,807,623,184,20,78,22,0,75,38295,38295,38295
163851,Salisbury University,1,38.34648,-75.604815,1101 Camden Ave,Salisbury,MD,21801-6862,41540,27.010141987829616,86,6695,6106,589,2,82,17,0,80,7408,17678,9171.535353535353
163912,St. Mary's College of Maryland,1,38.190904,-76.429097,47645 College Drive,St. Mary's City,MD,20686,15680,32,77,1519,1471,48,0,89,11,0,85,12116,28192,13884.359999999999
164076,Towson University,1,39.393622,-76.611164,8000 York Rd,Towson,MD,21252-0001,12580,26,88,17907,15526,2381,3,89,10,1,85,7100,22152,8620.404040404039
164216,Washington College,2,39.217329,-76.06878,300 Washington Ave,Chestertown,MD,21620-1438,-2,27.010141987829616,70,1026,1015,11,0,40,58,0,84,48678,48678,48678
164465,Amherst College,2,42.372459,-72.518493,Boltwood Avenue,Amherst,MA,01002-5000,44140,34,9,1971,1971,0,0,10,78,12,98,60700,60700,60700
164492,Anna Maria College,2,42.330542,-71.91896,50 Sunset Lane,Paxton,MA,01612-1198,49340,27.010141987829616,73,1119,921,198,11,48,44,8,67,37658,37658,37658
164739,Bentley University,2,42.385995,-71.222839,175 Forest St,Waltham,MA,02452-4705,14460,32,61,3996,3907,89,0,38,47,13,91,54910,54910,54910
164988,Boston University,2,42.351118,-71.107942,One Silber Way,Boston,MA,02215,14460,34,19,18229,17460,769,1,16,60,24,94,58560,58560,58560
165015,Brandeis University,2,42.365727,-71.260155,415 South St,Waltham,MA,02454-9110,14460,34,39,3591,3568,23,1,23,57,20,91,59408,59408,59408
165024,Bridgewater State University,1,41.98749,-70.974553,131 Summer Street,Bridgewater,MA,02325,14460,28,86,8369,6520,1849,7,91,8,0,79,910,7050,1406.161616161616
165334,Clark University,2,42.249987,-71.823356,950 Main St,Worcester,MA,01610-1477,49340,30,48,2302,2284,18,0,33,59,0,87,49950,49950,49950
165574,Dean College,2,42.085634,-71.397813,99 Main Street,Franklin,MA,02038-1941,14460,27.010141987829616,74,1206,1108,98,3,50,46,5,75,42146,42146,42146
165662,Emerson College,2,42.352202,-71.065384,120 Boylston Street,Boston,MA,02116-4624,14460,32,45,4117,4053,64,0,14,71,15,87,50360,50360,50360
165671,Emmanuel College,2,42.340602,-71.103634,400 The Fenway,Boston,MA,02115,14460,32,74,1870,1745,125,2,57,41,2,86,43152,43152,43152
165820,Fitchburg State University,1,42.588298,-71.789666,160 Pearl St,Fitchburg,MA,01420-2697,49340,25,85,3349,2506,843,16,88,12,0,68,970,7050,1699.6
165866,Framingham State University,1,42.297116,-71.437565,100 State Street,Framingham,MA,01701-9101,14460,31,84,3213,2734,479,14,92,7,1,71,970,7050,1399.89898989899
165936,Gordon College,2,42.590567,-70.82151,255 Grapevine Rd,Wenham,MA,01984,14460,30,77,1368,1300,68,2,38,54,7,79,25250,25250,25250
166027,Harvard University,2,42.374471,-71.118313,Massachusetts Hall,Cambridge,MA,02138,14460,36,4,9579,7483,2096,25,15,69,16,96,51143,51143,51143
166391,Lasell University,2,42.342148,-71.24347,1844 Commonwealth Avenue,Newton,MA,02466,14460,29,85,1301,1267,34,4,53,46,1,72,40350,40350,40350
166513,University of Massachusetts-Lowell,1,42.652864,-71.326809,1 University Ave,Lowell,MA,01854-5104,14460,32,85,12884,9997,2887,18,90,9,1,82,15078,33004,16707.636363636364
166629,University of Massachusetts-Amherst,1,42.385999,-72.526728,374 Whitmore Building 181 Presidents Drive,Amherst,MA,01003,44140,33,66,24231,22539,1692,5,70,21,8,91,15791,36316,20527.53846153846
166638,University of Massachusetts-Boston,1,42.312881,-71.036865,100 Morrissey Boulevard,Boston,MA,02125-3393,14460,30,79,12269,9994,2275,7,84,10,6,75,14187,34649,16363.808510638299
166674,Massachusetts College of Art and Design,1,42.336862000000004,-71.099275,621 Huntington Ave,Boston,MA,02115-5882,14460,27.010141987829616,79,1778,1556,222,1,69,24,6,86,1030,26630,7636.451612903225
166683,Massachusetts Institute of Technology,2,42.359243,-71.093226,77 Massachusetts Avenue,Cambridge,MA,02139-4307,14460,27.010141987829616,4,4638,4588,50,0,8,79,13,99,55510,55510,55510
166939,Mount Holyoke College,2,42.256838,-72.575511,50 College Street,South Hadley,MA,01075-1489,44140,35,52,2220,2200,20,0,16,62,21,91,56300,56300,56300
167288,Massachusetts College of Liberal Arts,1,42.691361,-73.102817,375 Church Street,North Adams,MA,01247-4100,38340,27.010141987829616,91,870,759,111,1,62,38,0,63,1030,9975,4429.1
167358,Northeastern University,2,42.339992,-71.088782,360 Huntington Ave,Boston,MA,02115-5005,14460,35,18,15747,15711,36,1,24,66,10,97,56500,56500,56500
167394,College of Our Lady of the Elms,2,42.141781,-72.60154,291 Springfield St,Chicopee,MA,01013,44140,27.010141987829616,68,1060,885,175,15,70,30,0,86,37605,37605,37605
167598,Regis College,2,42.351291,-71.310561,235 Wellesley St,Weston,MA,02493-1571,14460,27.010141987829616,89,1271,1017,254,8,83,17,0,82,44809,44809,44809
167729,Salem State University,1,42.503575,-70.890234,352 Lafayette St,Salem,MA,01970,14460,27.010141987829616,90,5555,4234,1321,14,91,8,1,75,910,7050,1406.161616161616
167783,Simmons University,2,42.3393,-71.099967,300 The Fenway,Boston,MA,02115-5898,14460,31,84,1748,1638,110,3,50,48,2,86,41872,41872,41872
167835,Smith College,2,42.318111,-72.638097,Elm St,Northampton,MA,01063,44140,34,30,2566,2554,12,0,15,69,13,95,55830,55830,55829.99999999999
167987,University of Massachusetts-Dartmouth,1,41.62869,-71.004552,285 Old Westport Rd,North Dartmouth,MA,02747-2300,39300,26,92,5833,4905,928,15,89,10,0,68,13833,29578,15423.404040404039
168005,Suffolk University,2,42.357945,-71.060917,73 Tremont St.,Boston,MA,02108-3901,14460,29,88,4227,4043,184,0,58,31,11,78,41242,41242,41242
168227,Wentworth Institute of Technology,2,42.336632,-71.094983,550 Huntington Ave,Boston,MA,02115,14460,30,90,3958,3658,300,4,66,31,3,78,37050,37050,37050
168421,Worcester Polytechnic Institute,2,42.274853,-71.808339,100 Institute Road,Worcester,MA,01609-2280,49340,27.010141987829616,60,5224,5051,173,0,44,50,5,94,54640,54640,54640
168430,Worcester State University,1,42.267526,-71.844018,486 Chandler St,Worcester,MA,01602-2597,49340,24,89,4640,3575,1065,10,95,3,1,73,970,7050,1156.122448979592
168528,Adrian College,2,41.898591,-84.061481,110 S Madison St,Adrian,MI,49221-2575,10300,25,76,1805,1718,87,0,66,29,5,66,38032,38032,38032
168591,Alma College,2,43.38004,-84.672053,614 W Superior,Alma,MI,48801-1599,10940,27.010141987829616,69,1340,1308,32,0,89,9,1,79,43602,43602,43602
168786,Aquinas College,2,42.96019,-85.628785,1700 Fulton St. E,Grand Rapids,MI,49506-1801,24340,25,89,1238,1059,179,1,83,11,0,85,35384,35384,35384
168847,Baker College,2,42.984804,-84.172404,1020 S Washington St,Owosso,MI,48867,29620,27.010141987829616,41,4662,1677,2985,57,92,7,0,63,12180,12180,12180
169248,Central Michigan University,1,43.591203,-84.77525,106 Warriner Hall,Mount Pleasant,MI,48859,34380,26,77,11417,9807,1610,11,90,9,1,77,12644,12644,12644
169442,College for Creative Studies,2,42.361839,-83.062352,201 E Kirby,Detroit,MI,48202,19820,27.010141987829616,54,1558,1218,340,4,74,21,4,75,46170,46170,46170
169716,University of Detroit Mercy,2,42.414222,-83.139158,4001 W McNichols Rd,Detroit,MI,48221-3038,19820,29,93,2924,2182,742,13,86,5,9,83,30154,30154,30154
169798,Eastern Michigan University,1,42.251675,-83.627443,900 Oakwood St.,Ypsilanti,MI,48197,11460,25,85,12730,9038,3692,22,83,14,3,69,13950,13950,13950
169910,Ferris State University,1,43.687724,-85.481925,1201 S State St,Big Rapids,MI,49307-2251,13660,26,85,9248,6566,2682,16,92,6,1,77,13188,13188,13188
170082,Grand Valley State University,1,42.963001,-85.889826,1 Campus Dr,Allendale,MI,49401-9403,24340,27.010141987829616,92,19379,16993,2386,4,89,11,0,83,13900,19628,14530.08
170639,Lake Superior State University,1,46.492849,-84.365573,650 W Easterday Ave,Sault Ste Marie,MI,49783,42300,27,73,1812,1406,406,4,80,13,0,67,12912,12912,12912
170806,Madonna University,2,42.384323,-83.404722,36600 Schoolcraft Rd,Livonia,MI,48150-1176,19820,25,52,2040,1485,555,19,92,8,0,68,24900,24900,24900
171137,University of Michigan-Dearborn,1,42.317287,-83.231417,4901 Evergreen Rd,Dearborn,MI,48128-1491,19820,28,69,6355,4770,1585,10,97,2,1,84,13416,27648,13703.515151515152
171146,University of Michigan-Flint,1,43.01875,-83.690276,303 E. Kearsley Street,Flint,MI,48502-1950,22420,29,74,4995,3032,1963,45,98,1,0,70,11868,23604,11986.545454545454
171456,Northern Michigan University,1,46.559751,-87.406568,1401 Presque Isle Avenue,Marquette,MI,49855-5301,32100,27.010141987829616,71,6611,5785,826,5,72,27,1,72,12386,18008,13919.272727272728
171492,Northwood University,2,43.628717,-84.27682,4000 Whiting Dr,Midland,MI,48640-2398,33220,27.010141987829616,83,2116,1340,776,40,79,17,4,85,29000,29000,29000
171571,Oakland University,1,42.674573,-83.216418,2200 North Squirrel Road,Rochester Hills,MI,48309-4401,19820,29,92,13771,10869,2902,12,95,2,2,73,15135,24735,15332.938144329899
172264,Siena Heights University,2,41.905624,-84.018841,1247 E. Siena Heights Dr.,Adrian,MI,49221,10300,27.010141987829616,68,1782,1116,666,35,75,22,4,70,27500,27500,27500
172334,Spring Arbor University,2,42.206568,-84.556074,106 E. Main St,Spring Arbor,MI,49283-9799,27100,27.010141987829616,60,1215,933,282,13,79,19,2,80,30440,30440,30440
172644,Wayne State University,1,42.358994,-83.068998,42 W. Warren Ave.,Detroit,MI,48202,19820,28,63,16839,12900,3939,22,97,2,1,81,13532,31060,13886.10101010101
172699,Western Michigan University,1,42.282194,-85.613759,1903 W Michigan Ave,Kalamazoo,MI,49008-5200,28020,27,83,14587,12149,2438,9,75,23,2,77,13334,16668,14116.469387755102
173045,Augsburg University,2,44.966307,-93.240436,2211 Riverside Ave,Minneapolis,MN,55454,33460,24,76,2363,2113,250,6,88,9,3,69,40277,40277,40277
173142,Bethany Lutheran College,2,44.166649,-93.990805,700 Luther Dr,Mankato,MN,56001,31860,27.010141987829616,61,781,651,130,11,46,29,25,73,27980,27980,27980
173160,Bethel University,2,45.057655,-93.161663,3900 Bethel Dr,Saint Paul,MN,55112,33460,28,89,2653,2121,532,11,78,22,0,86,39920,39920,39920
173258,Carleton College,2,44.462318,-93.154666,One North College Street,Northfield,MN,55057,22060,35,18,2044,2032,12,0,16,71,13,95,59850,59850,59850
173300,Concordia College at Moorhead,2,46.862482,-96.76749,901 S 8th St,Moorhead,MN,56562,22020,26,72,1883,1837,46,0,61,32,8,82,27500,27500,27500
173452,Martin Luther College,2,44.30526,-94.472326,1995 Luther Ct,New Ulm,MN,56073-3965,35580,27,91,795,652,143,18,14,85,1,83,16910,16910,16910
173647,Gustavus Adolphus College,2,44.323626,-93.972196,800 West College Avenue,Saint Peter,MN,56082-1498,31860,31,73,2251,2224,27,0,77,18,5,84,49950,49950,49950
174066,University of Minnesota-Twin Cities,1,44.972851,-93.235464,100 Church Street SE,Minneapolis,MN,55455-0213,33460,32,73,36209,29074,7135,3,68,27,4,92,13532,32096,18808.084210526315
174075,University of Minnesota-Crookston,1,47.802536,-96.606188,2900 University Ave,Crookston,MN,56716-5001,24220,27.010141987829616,48,2304,1050,1254,43,64,30,7,70,10822,10822,10822
174127,Minneapolis College of Art and Design,2,44.956988,-93.274705,2501 Stevens Ave,Minneapolis,MN,55404,33460,27.010141987829616,66,675,667,8,0,55,44,2,77,41344,41344,41344
174233,University of Minnesota-Duluth,1,46.817126,-92.084385,515 Darland Administration Bldg,Duluth,MN,55812,20260,28,80,9024,7699,1325,2,87,13,1,77,12420,17718,13108.74
174251,University of Minnesota-Morris,1,45.589775,-95.899729,309 Behmler Hall,Morris,MN,56267,-2,27.010141987829616,76,1286,1140,146,5,79,20,1,78,12584,14676,13006.626262626261
174491,University of Northwestern-St Paul,2,45.033703,-93.167822,3003 Snelling Ave N,Saint Paul,MN,55113-1598,33460,27.010141987829616,82,3289,2003,1286,37,77,20,3,81,33460,33460,33460
174747,College of Saint Benedict,2,45.561792,-94.319888,37 S. College Ave.,Saint Joseph,MN,56374,41060,27,92,1542,1533,9,0,84,14,2,85,48990,48990,48990
174792,Saint Johns University,2,45.580075,-94.393621,2850 Abbey Plaza,Collegeville,MN,56321,41060,28,89,1538,1515,23,0,83,14,3,85,48990,48990,48990
174914,University of St Thomas,2,44.943439,-93.188986,2115 Summit Ave,Saint Paul,MN,55105-1078,33460,28,76,6056,5845,211,0,76,21,3,85,47274,47274,47274
175227,Dunwoody College of Technology,2,44.97281,-93.290608,818 Dunwoody Blvd,Minneapolis,MN,55403-1192,33460,27.010141987829616,99,1382,1141,241,6,96,4,0,58,21984,21984,21984
175430,Blue Mountain College,2,34.67209,-89.02924,201 W Main St,Blue Mountain,MS,38610,-2,23,99,958,602,356,16,58,33,9,69,17380,17380,17380
175616,Delta State University,1,33.744745,-90.735365,1003 W Sunflower Road,Cleveland,MS,38733,17380,22,100,2041,1486,555,10,66,32,2,65,8190,8190,8190
175856,Jackson State University,1,32.296105,-90.207405,1400 John R. Lynch Street,Jackson,MS,39217,27140,20,62,4763,4046,717,33,29,69,2,77,8270,8270,8270
175980,Millsaps College,2,32.322746,-90.179957,1701 N State St,Jackson,MS,39210-0001,27140,28,68,637,632,5,0,36,58,5,71,40140,40140,40140
176017,University of Mississippi,1,34.365529,-89.537434,"Oxford, Mississippi",University,MS,38677-1848,37060,29,90,16092,15040,1052,6,38,61,0,88,8934,25776,19311.39393939394
176035,Mississippi University for Women,1,33.493305,-88.418601,1100 College Street,Columbus,MS,39701,18060,24,99,2178,1627,551,31,80,19,1,75,7656,7656,7656
176053,Mississippi College,2,32.335515,-90.329821,200 South Capitol Street,Clinton,MS,39058,27140,28,49,2523,2082,441,5,53,45,2,77,18900,18900,18900
176080,Mississippi State University,1,33.454852,-88.790139,Lee Boulevard,Mississippi State,MS,39762,44260,30,76,18584,16794,1790,9,58,41,1,81,9110,24790,15603.737373737375
176372,University of Southern Mississippi,1,31.32661,-89.331236,118 College Drive # 0001,Hattiesburg,MS,39406-0001,25620,26,96,10693,9018,1675,20,73,25,2,70,9094,11094,9604.204081632652
176479,William Carey University,2,31.305264,-89.291815,710 William Carey Parkway,Hattiesburg,MS,39401,25620,29,57,3337,1888,1449,14,69,18,13,87,13500,13500,13500
176947,Central Methodist University-College of Liberal Arts and Sciences,2,39.150497,-92.685253,411 Central Methodist Square,Fayette,MO,65248-1198,17860,23,99,1144,1132,12,0,66,26,7,59,25690,25690,25690
176965,University of Central Missouri,1,38.759111,-93.737428,108 W South Street,Warrensburg,MO,64093,47660,27.010141987829616,76,7577,5626,1951,8,87,11,2,71,7758,15495,8626.438775510203
177144,Culver-Stockton College,2,40.128993,-91.529374,One College Hill,Canton,MO,63435-1299,39500,25,93,879,803,76,4,37,58,5,64,28000,28000,28000
177214,Drury University,2,37.219681,-93.286192,900 N. Benton Ave,Springfield,MO,65802-3791,44180,30,65,1345,1318,27,0,68,27,5,76,31100,31100,31100
177418,Fontbonne University,2,38.642697,-90.315712,6800 Wydown Blvd,Saint Louis,MO,63105-3098,41180,25,78,665,592,73,10,83,15,2,71,27700,27700,27700
177986,Logan University,2,38.63133,-90.542333,1851 Schoettler Rd,Chesterfield,MO,63017,41180,27.010141987829616,66,372,179,193,97,16,79,0,50,6600,6600,6600
178341,Missouri Southern State University,1,37.095155,-94.461689,3950 E. Newman Road,Joplin,MO,64801-1595,27900,24,97,4245,2755,1490,22,77,22,1,59,7762,15896,9569.555555555555
178369,Missouri Valley College,2,39.108522,-93.190654,500 E College St,Marshall,MO,65340,32180,21,66,1741,1411,330,13,21,40,39,47,20500,20500,20500
178396,University of Missouri-Columbia,1,38.94531,-92.328843,105 Jesse Hall,Columbia,MO,65211,17860,30,77,23696,21875,1821,6,68,31,1,88,10017,28992,15958.666666666666
178402,University of Missouri-Kansas City,1,39.034179,-94.582141,5000 Holmes St.,Kansas City,MO,64110,28140,30,76,10698,5786,4912,4,70,28,2,72,9579,26331,14365.285714285714
178411,Missouri University of Science and Technology,1,37.953426,-91.775583,300 W.13th Street,Rolla,MO,65409,40620,32,85,5696,5059,637,0,78,21,1,85,9960,29550,14115.454545454546
178420,University of Missouri-St Louis,1,38.710312,-90.311091,One University Boulevard,Saint Louis,MO,63121-4400,41180,29,57,12347,4415,7932,19,77,15,8,73,12015,30570,15040.271739130432
178615,Truman State University,1,40.188267,-92.581658,100 E Normal Avenue,Kirksville,MO,63501-4221,28860,30,61,3890,3203,687,14,78,15,7,84,8365,16086,9610.322580645161
178624,Northwest Missouri State University,1,40.351692,-94.883339,800 University Drive,Maryville,MO,64468-6001,32340,24,86,5306,4405,901,8,70,29,1,76,5461,11528,7238.202020202019
178697,College of the Ozarks,2,36.616019,-93.238174,100 Opportunity Avenue,Point Lookout,MO,65726-0017,14700,25,21,1479,1451,28,0,63,37,0,78,19500,19500,19500
179043,Rockhurst University,2,39.032318,-94.573003,1100 Rockhurst Rd,Kansas City,MO,64110-2561,28140,26,67,2704,1779,925,5,65,33,3,77,39500,39500,39500
179326,Southwest Baptist University,2,37.602425,-93.407056,1600 University Ave,Bolivar,MO,65613-2596,44180,25,96,2101,1352,749,8,57,27,2,67,25100,25100,25100
179557,Southeast Missouri State University,1,37.311107,-89.531187,"One University Plaza, MS2025",Cape Girardeau,MO,63701,16020,27.010141987829616,79,8629,6548,2081,14,75,21,4,74,7461,14031,8898.1875
179867,Washington University in St Louis,2,38.647929,-90.310604,One Brookings Drive,Saint Louis,MO,63130-4899,41180,35,13,8034,7348,686,4,11,83,5,96,57750,57750,57750
179894,Webster University,2,38.588875,-90.345151,470 E Lockwood Ave.,Saint Louis,MO,63119-3194,41180,27,59,2346,1881,465,15,65,32,3,77,28500,28500,28500
179946,Westminster College,2,38.849354,-91.955273,501 Westminster Ave,Fulton,MO,65251-1299,27620,24,97,654,639,15,0,77,22,0,78,29390,29390,29390
179964,William Woods University,2,38.860287,-91.950416,One University Avenue,Fulton,MO,65251-2388,27620,27.010141987829616,68,781,608,173,24,68,26,5,69,25750,25750,25750
180258,University of Providence,2,47.490713,-111.270604,1301 20th St S,Great Falls,MT,59405-4996,24500,23,100,665,530,135,40,60,37,3,58,26462,26462,26462
180416,Montana Technological University,1,46.012868,-112.559511,1300 W Park St,Butte,MT,59701-8997,15580,27,90,1474,1382,92,2,80,20,0,76,5707,20791,8723.8
180461,Montana State University,1,45.666726,-111.048812,Montana State University,Bozeman,MT,59717,14580,27,73,14648,12317,2331,4,34,66,1,76,5654,26086,19139.12
180595,Rocky Mountain College,2,45.796522,-108.554075,1511 Poly Drive,Billings,MT,59102-1796,13740,25,81,817,791,26,0,61,34,5,60,30725,30725,30725
180692,The University of Montana-Western,1,45.208306,-112.639264,710 S Atlantic,Dillon,MT,59725-3598,-2,27.010141987829616,33,1399,1017,382,20,69,31,0,73,4523,15913,8053.9000000000005
181002,Creighton University,2,41.265361,-95.947811,2500 California Plaza,Omaha,NE,68178,36540,32,78,4481,4366,115,1,23,76,1,91,42618,42618,42618
181020,Doane University,2,40.622952,-96.950932,1014 Boswell Avenue,Crete,NE,68333,-2,27.010141987829616,77,1105,959,146,6,62,36,1,66,37080,37080,37080
181127,Hastings College,2,40.59025,-98.374403,710 N Turner Ave,Hastings,NE,68901,25580,27.010141987829616,71,924,919,5,0,48,46,6,69,31810,31810,31810
181215,University of Nebraska at Kearney,1,40.701452,-99.098699,2504 9th Avenue,Kearney,NE,68849-1212,28260,25,90,4427,3781,646,18,86,9,4,76,6270,13650,6969.157894736842
181297,Nebraska Methodist College of Nursing & Allied Health,2,41.265973,-96.048511,720 North 87th Street,Omaha,NE,68114-2852,36540,27.010141987829616,84,857,572,285,15,78,22,0,93,14869,14869,14869
181330,Midland University,2,41.43674,-96.488008,900 N. Clarkson St.,Fremont,NE,68025,23340,23,64,1401,1183,218,1,48,47,5,64,35996,35996,35996
181446,Nebraska Wesleyan University,2,40.839098,-96.64831,5000 St Paul Ave,Lincoln,NE,68504-2794,30700,29,82,1706,1606,100,0,72,28,0,74,37402,37402,37402
181464,University of Nebraska-Lincoln,1,40.817598,-96.700508,1400 R Street,Lincoln,NE,68588-0419,30700,28,81,19552,18437,1115,2,73,24,2,80,7770,24900,12008.350515463917
182290,University of Nevada-Reno,1,39.543642,-119.815377,North Virginia Street,Reno,NV,89557,39900,26,88,17025,14016,3009,2,73,26,0,78,7923,24013,12148.656565656565
182634,Colby-Sawyer College,2,43.411663,-71.975805,541 Main St,New London,NH,03257-7835,18180,27.010141987829616,93,788,757,31,14,41,54,2,68,44130,44130,44130
182670,Dartmouth College,2,43.704115,-72.289949,207 Parkhurst Hall,Hanover,NH,03755-3529,30100,35,6,4556,4555,1,0,2,81,14,98,58953,58953,58953.00000000001
183026,Southern New Hampshire University,2,43.038922,-71.451842,2500 North River Road,Manchester,NH,03106-1045,18180,27.010141987829616,92,121884,35970,85914,95,7,91,1,62,15000,15000,15000
183062,Keene State College,1,42.926452,-72.279276,229 Main Street,Keene,NH,03435-1506,28300,25,88,2964,2877,87,0,49,51,0,75,11754,22110,17035.56
183080,Plymouth State University,1,43.759573,-71.690164,17 High Street,Plymouth,NH,03264-1595,30100,27.010141987829616,92,3536,3368,168,2,93,7,0,64,11870,21810,12565.8
183822,Bloomfield College,2,40.795105,-74.194309,467 Franklin St,Bloomfield,NJ,07003,35620,27.010141987829616,84,1299,1217,82,11,93,6,0,67,30680,30680,30680
183974,Centenary University,2,40.84764,-74.833644,400 Jefferson St,Hackettstown,NJ,07840,10900,22,98,1128,1028,100,4,82,17,0,75,33550,33550,33550
184603,Fairleigh Dickinson University-Metropolitan Campus,2,40.897209,-74.028986,1000 River Rd,Teaneck,NJ,07666,35620,27.010141987829616,85,5540,1890,3650,0,77,17,6,69,36960,36960,36960
184612,Felician University,2,40.867272,-74.096452,262 S Main St,Lodi,NJ,07644,35620,23,92,1999,1749,250,7,90,8,2,73,33200,33200,33200
184694,Fairleigh Dickinson University-Florham Campus,2,40.774498,-74.432121,285 Madison Ave,Madison,NJ,07940,35620,27.010141987829616,85,2320,2211,109,0,83,17,0,77,38940,38940,38940
184773,Georgian Court University,2,40.099617,-74.228186,900 Lakewood Ave,Lakewood,NJ,08701-2697,35620,27,80,1612,1202,410,3,78,16,6,70,32852,32852,32852
184782,Rowan University,1,39.709108,-75.119119,201 Mullica Hill Road,Glassboro,NJ,08028,37980,30,84,15119,13061,2058,9,94,5,1,83,10302,19334,10758.161616161617
185262,Kean University,1,40.677981,-74.233503,1000 Morris Avenue,Union,NJ,07083,35620,23,79,10573,8421,2152,12,92,5,4,71,10445,17621,10814.896907216496
185572,Monmouth University,2,40.280066,-74.006447,400 Cedar Ave,West Long Branch,NJ,07764-1898,35620,26,84,4080,3908,172,0,71,28,1,84,40968,40968,40968
185590,Montclair State University,1,40.860414,-74.198141,1 Normal Avenue,Montclair,NJ,07043-1624,35620,27.010141987829616,91,16093,14361,1732,3,92,7,0,79,12323,20443,12897.141414141413
185828,New Jersey Institute of Technology,1,40.741997,-74.177113,University Heights,Newark,NJ,07102,35620,33,69,9183,7305,1878,1,92,5,3,88,14790,30808,15615.670103092783
186131,Princeton University,2,40.348732,-74.659365,1 Nassau Hall,Princeton,NJ,08544-0070,45940,35,4,5321,5240,81,0,15,72,13,96,56010,56010,56010
186201,Ramapo College of New Jersey,1,41.080942,-74.174086,505 Ramapo Valley Rd,Mahwah,NJ,07430-1680,35620,29,70,5145,4459,686,27,96,3,1,87,14952,24694,15247.212121212122
186371,Rutgers University-Camden,1,39.948064,-75.12224,406 Penn,Camden,NJ,08102,37980,25,79,4856,4055,801,16,91,6,3,77,12536,29178,13565.40206185567
186380,Rutgers University-New Brunswick,1,40.498769,-74.446251,83 Somerset St,New Brunswick,NJ,08901-1281,35620,33,68,36152,34389,1763,11,86,6,8,94,12536,29737,13657.804347826086
186399,Rutgers University-Newark,1,40.739122,-74.175809,"249 University Avenue, Blumenthal Hall",Newark,NJ,07102,35620,28,77,8334,7138,1196,5,93,2,5,86,12536,29737,12898.126315789474
186432,Saint Peter's University,2,40.727105,-74.071541,2641 Kennedy Blvd,Jersey City,NJ,07306-5997,35620,28,93,2134,1937,197,10,88,9,4,77,37660,37660,37660
186584,Seton Hall University,2,40.742336,-74.246027,400 S Orange Ave,South Orange,NJ,07079-2697,35620,32,77,6063,5914,149,0,73,26,1,83,44420,44420,44420
186618,Saint Elizabeth University,2,40.78182,-74.438221,2 Convent Road,Morristown,NJ,07960,35620,27.010141987829616,74,752,597,155,3,92,7,2,69,32900,32900,32900
186867,Stevens Institute of Technology,2,40.744776,-74.025334,Castle Point On Hudson,Hoboken,NJ,07030-5991,35620,34,53,4064,4035,29,0,62,35,2,93,54780,54780,54780
186876,Stockton University,1,39.492036,-74.531087,101 Vera King Farris Drive,Galloway,NJ,08205-9441,12100,27,85,8392,7958,434,5,95,5,0,78,12490,20072,12869.1
187134,The College of New Jersey,1,40.268651,-74.778791,2000 Pennington Road,Ewing,NJ,08628-7718,45940,32,62,6959,6781,178,0,94,6,0,92,13603,25910,14341.420000000002
187444,William Paterson University of New Jersey,1,40.945255,-74.200248,300 Pompton Rd,Wayne,NJ,07470,35620,27.010141987829616,83,7219,5708,1511,14,93,6,2,67,13776,22514,14305.575757575758
187648,Eastern New Mexico University-Main Campus,1,34.175592,-103.34819,"ENMU Station 2, 1500 S Ave K",Portales,NM,88130,38780,22,33,3756,1985,1771,51,76,23,1,59,4074,6114,4547.939393939394
187967,New Mexico Institute of Mining and Technology,1,34.067041,-106.905211,801 Leroy Place,Socorro,NM,87801,-2,29,97,1244,1135,109,1,86,12,0,76,7031,22860,8969.244897959185
187985,University of New Mexico-Main Campus,1,35.083868,-106.620155,1700 Lomas Blvd NE,Albuquerque,NM,87106,10740,26,97,15793,11480,4313,14,77,21,2,68,6605,23942,10320.071428571428
188030,New Mexico State University-Main Campus,1,32.281568,-106.752069,2850 Weddell Street,Las Cruces,NM,88003-8001,29740,23,57,11231,9084,2147,15,70,28,2,72,6041,22507,10745.571428571428
188641,Alfred University,2,42.254476,-77.788106,One Saxon Drive,Alfred,NY,14802-1205,-2,29,67,1485,1425,60,2,74,21,5,70,32664,35076,33197.17894736842
189097,Barnard College,2,40.810098000000004,-73.963346,3009 Broadway,New York,NY,10027-6598,35620,34,11,3043,2959,84,1,27,59,9,97,57734,57734,57734
190044,Clarkson University,2,44.662716,-74.999359,8 Clarkson Ave,Potsdam,NY,13699,36300,32,75,2852,2796,56,0,63,34,4,80,53100,53100,53100
190099,Colgate University,2,42.819475,-75.536346,13 Oak Drive,Hamilton,NY,13346-1398,45060,34,17,3164,3142,22,0,23,68,9,93,61594,61594,61594
190114,Metropolitan College of New York,2,40.708706,-74.014702,60 West Street,New York,NY,10006-1742,35620,27.010141987829616,77,402,290,112,78,89,11,0,36,19338,19338,19338
190372,Cooper Union for the Advancement of Science and Art,2,40.728148,-73.991609,7 East 7th Street,New York,NY,10003-7120,35620,27.010141987829616,15,876,873,3,0,55,31,13,91,44550,44550,44550
190415,Cornell University,2,42.4472,-76.483084,300 Day Hall,Ithaca,NY,14853,27060,35,9,15503,15450,53,0,32,56,10,97,60286,60286,60286
190503,Culinary Institute of America,2,41.745806,-73.933231,1946 Campus Drive,Hyde Park,NY,12538-1499,39100,27.010141987829616,98,2854,2724,130,6,16,75,9,64,32800,32800,32800
190716,D'Youville College,2,42.902636,-78.890868,320 Porter Ave,Buffalo,NY,14201-1084,15380,26,92,1396,1075,321,3,74,20,7,73,28968,28968,28968
190761,Dominican College of Blauvelt,2,41.047419,-73.950555,470 Western Highway,Orangeburg,NY,10962-1210,35620,27.010141987829616,76,1147,1065,82,2,70,26,4,76,30600,30600,30600
191126,Fashion Institute of Technology,1,40.74731,-73.994781,227 W 27th St,New York,NY,10001-5992,35620,27.010141987829616,52,7908,6875,1033,4,54,37,9,86,7170,21692,13074.549450549452
191241,Fordham University,2,40.859354,-73.882705,441 E Fordham Rd,Bronx,NY,10458,35620,33,58,9904,9443,461,1,37,56,6,88,54730,54730,54730
191533,Hartwick College,2,42.457599,-75.071994,One Hartwick Drive,Oneonta,NY,13820-4020,36580,28,96,1163,1137,26,0,68,29,3,63,48790,48790,48790
191621,Hilbert College,2,42.75464,-78.820257,5200 S Park Ave,Hamburg,NY,14075-1597,15380,27.010141987829616,93,728,700,28,4,90,7,0,62,24435,24435,24435
191630,Hobart William Smith Colleges,2,42.858131,-76.985516,337 Pulteney Street,Geneva,NY,14456,40380,31,67,1660,1640,20,0,40,52,8,91,58900,58900,58900
191649,Hofstra University,2,40.715959,-73.60078,100 Hofstra University,Hempstead,NY,11549,35620,31,68,6050,5747,303,1,62,35,3,80,50265,50265,50265
192192,Keuka College,2,42.615253,-77.090562,141 Central Avenue,Keuka Park,NY,14478,40380,27,94,1119,1033,86,9,92,8,0,66,33681,33681,33681
192448,Long Island University,2,40.820714,-73.593678,720 Northern Blvd,Brookville,NY,11548-1327,35620,31,93,10707,5400,5307,0,64,32,4,82,37296,37296,37296
192703,Manhattan College,2,40.889756,-73.901893,4513 Manhattan College Parkway,Riverdale,NY,10471-4098,35620,27.010141987829616,75,3166,3016,150,0,67,29,3,76,42800,42800,42800
192712,Manhattan School of Music,2,40.812312,-73.961334,130 Claremont Avenue,New York,NY,10027,35620,27.010141987829616,49,500,486,14,0,17,50,31,86,49850,49850,49850
192749,Manhattanville College,2,41.032187,-73.715645,2900 Purchase St,Purchase,NY,10577,35620,29,83,1342,1290,52,0,72,25,4,73,38880,38880,38880
192819,Marist College,2,41.720937,-73.935484,3399 North Rd,Poughkeepsie,NY,12601,39100,29,60,5510,4880,630,2,43,55,2,86,40675,40675,40675
193016,Mercy College,2,41.021626,-73.874447,555 Broadway,Dobbs Ferry,NY,10522,35620,27,86,6505,5057,1448,21,92,6,2,71,19920,19920,19920
193292,Molloy College,2,40.685941,-73.626183,1000 Hempstead Ave,Rockville Centre,NY,11571-5002,35620,32,79,3308,2657,651,5,91,8,1,83,32900,32900,32900
193399,College of Mount Saint Vincent,2,40.913657,-73.908886999999993,6301 Riverdale Ave,Bronx,NY,10471-1093,35620,24,82,2281,2126,155,1,83,16,1,69,39500,39500,39500
193584,Nazareth College,2,43.101576,-77.518579,4245 East Ave,Rochester,NY,14618-3790,40380,27.010141987829616,86,2057,1995,62,0,85,14,1,80,35890,35890,35890
193900,New York University,2,40.729452,-73.997264,70 Washington Sq South,New York,NY,10012-1091,35620,35,13,28772,27642,1130,1,26,54,20,94,53770,53770,53770
193973,Niagara University,2,43.137279,-79.036689,Lewiston Road,Niagara University,NY,14109,15380,28,92,2785,2706,79,8,83,13,4,79,34400,34400,34400
194091,New York Institute of Technology,2,40.812447,-73.6078,Northern Blvd,Old Westbury,NY,11568-8000,35620,31,80,3414,3008,406,2,78,15,6,77,38060,38060,38060
194116,New York School of Interior Design,2,40.768615,-73.962404,170 East 70th Street,New York,NY,10021,35620,27.010141987829616,54,487,120,367,67,25,50,25,0,32850,32850,32850
194392,Paul Smiths College of Arts and Science,2,44.433965,-74.252675,7777 State Route 30,Paul Smiths,NY,12970-0265,31660,27.010141987829616,75,711,697,14,0,54,45,1,75,31080,31080,31080
194578,Pratt Institute-Main,2,40.691297,-73.96431,200 Willoughby Ave,Brooklyn,NY,11205,35620,32,68,3908,3785,123,0,15,51,32,88,53566,53566,53566
195003,Rochester Institute of Technology,2,43.084188,-77.67386,1 Lomb Memorial Dr,Rochester,NY,14623-5603,40380,33,71,14000,12742,1258,2,46,51,3,88,50225,50225,50225
195128,Russell Sage College,2,42.72822,-73.693711,65 1st Street,Troy,NY,12180,10580,27.010141987829616,73,1197,1149,48,0,91,9,0,69,32394,32394,32394
195164,St Bonaventure University,2,42.080191,-78.481107,3261 W. State Road,Saint Bonaventure,NY,14778-9800,36460,27,78,1796,1724,72,0,74,21,2,73,36520,36520,36520
195234,The College of Saint Rose,2,42.664297,-73.786661,432 Western Ave,Albany,NY,12203-1490,10580,27.010141987829616,76,1798,1720,78,2,79,17,1,58,34114,34114,34114
195243,St. Thomas Aquinas College,2,41.041576,-73.936799,125 Rte 340,Sparkill,NY,10976-1050,35620,32,89,1848,1037,811,0,79,16,5,80,34500,34500,34500
195474,Siena College,2,42.717602,-73.7526,515 Loudon Rd,Loudonville,NY,12211-1462,10580,27.010141987829616,83,3496,3394,102,1,76,20,3,82,39925,39925,39925
195526,Skidmore College,2,43.097035,-73.785335,815 N Broadway,Saratoga Springs,NY,12866,10580,33,31,2686,2655,31,0,29,62,10,90,59064,59064,59064
195544,St. Joseph's University-New York,2,40.690418,-73.967664,245 Clinton Ave,Brooklyn,NY,11205-3688,35620,27,80,3774,3352,422,11,94,5,0,81,29976,29976,29976
195720,Saint John Fisher College,2,43.116259,-77.513056,3690 East Ave,Rochester,NY,14618-3597,40380,29,71,2597,2491,106,2,91,9,0,87,35352,35352,35352
196006,SUNY College of Technology at Alfred,1,42.255262,-77.794631999999993,10 Upper College Drive,Alfred,NY,14802,-2,27.010141987829616,82,3414,3092,322,14,95,4,0,72,7070,14150,7356.060606060606
196015,SUNY College of Technology at Canton,1,44.604096,-75.182906,34 Cornell Drive,Canton,NY,13617-1098,36300,23,95,2863,2353,510,44,94,4,2,71,7070,13830,7345.91836734694
196024,SUNY College of Technology at Delhi,1,42.269859,-74.924612,454 Delhi Drive,Delhi,NY,13753-1100,-2,27.010141987829616,88,2503,1971,532,31,97,3,0,66,7070,10840,7183.1
196033,SUNY College of Agriculture and Technology at Cobleskill,1,42.672534,-74.498258,State Route 7,Cobleskill,NY,12043,10580,20,81,1820,1682,138,6,92,8,0,60,7070,16980,7862.8
196042,Farmingdale State College,1,40.754224,-73.42832,2350 Broadhollow Road,Farmingdale,NY,11735-1021,35620,27,73,9284,7321,1963,11,99,0,1,80,7070,16980,7070
196051,SUNY Morrisville,1,42.893962,-75.640583,80 Eaton Street,Morrisville,NY,13408,45060,27.010141987829616,81,1957,1648,309,6,93,4,2,55,7070,16980,7478.659793814433
196060,SUNY at Albany,1,42.685489,-73.824662,1400 Washington Avenue,Albany,NY,12222,10580,29,68,12654,11792,862,5,93,4,2,82,7070,24910,7805.670103092783
196079,Binghamton University,1,42.087868,-75.966889,4400 Vestal Parkway East,Vestal,NY,13850-6000,13780,33,44,14307,13966,341,0,89,9,2,91,7070,24910,8708.367346938776
196088,University at Buffalo,1,43.000942,-78.789458,12 Capen Hall,Buffalo,NY,14260-1660,15380,31,70,21467,19773,1694,7,87,3,10,83,7070,24990,7667.333333333333
196097,Stony Brook University,1,40.91476,-73.12046,310 Administration Building,Stony Brook,NY,11794-0701,35620,33,48,17999,16698,1301,7,83,11,7,89,7070,24990,9167.021276595744
196112,SUNY Polytechnic Institute,1,43.137701,-75.229841,100 Seymour Rd,Utica,NY,13502,46540,31,77,2037,1737,300,20,97,2,1,75,7070,17830,7287.373737373738
196121,SUNY Brockport,1,43.211926,-77.947188,350 New Campus Dr,Brockport,NY,14420-2919,40380,28,76,5714,4880,834,10,98,2,0,69,7070,16980,7268.2
196130,SUNY Buffalo State,1,42.933832,-78.882125,1300 Elmwood Ave,Buffalo,NY,14222,15380,27.010141987829616,85,6147,5384,763,5,97,2,1,48,7070,16980,7270.20202020202
196149,SUNY Cortland,1,42.598022,-76.188655,Miller Building,Cortland,NY,13045-0900,18660,27,60,5984,5816,168,1,96,3,0,80,7070,16980,7370.30303030303
196158,SUNY at Fredonia,1,42.452236,-79.337375,280 Central Ave,Fredonia,NY,14063-1136,27460,29,91,3552,3449,103,1,94,5,1,73,7070,16980,7570.50505050505
196176,State University of New York at New Paltz,1,41.740936,-74.082188,1 Hawk Drive,New Paltz,NY,12561-2443,28740,30,46,6256,5622,634,4,97,3,0,82,7070,16980,7367.3
196185,SUNY Oneonta,1,42.468861,-75.063632,108 Ravine Parkway,Oneonta,NY,13820-4015,36580,27.010141987829616,70,5380,5238,142,4,96,3,0,76,7070,16980,7370.30303030303
196194,SUNY College at Oswego,1,43.454287,-76.540798,7060 State Route 104,Oswego,NY,13126,45060,29,80,6135,5670,465,10,92,6,2,75,7070,16980,7676.734693877551
196200,SUNY College at Potsdam,1,44.662148,-74.973815,44 Pierrepont Ave,Potsdam,NY,13676-2294,36300,27.010141987829616,81,2352,2251,101,1,96,4,0,67,7070,16980,7466.4000000000005
196219,SUNY at Purchase College,1,41.047223,-73.701955,735 Anderson Hill Rd,Purchase,NY,10577-1400,35620,31,75,3439,3145,294,12,83,16,1,79,7070,16980,8671.616161616163
196237,SUNY College at Old Westbury,1,40.799021,-73.571907,223 Store Hill Rd,Old Westbury,NY,11568-0210,35620,27.010141987829616,77,4033,3399,634,15,99,0,0,73,7070,16980,7070
196246,SUNY College at Plattsburgh,1,44.69293,-73.466536,101 Broad Street,Plattsburgh,NY,12901-2681,38460,28,68,4323,3860,463,13,93,3,3,72,7070,16980,7379.6875
196291,SUNY Maritime College,1,40.807217,-73.795309,6 Pennyfield Avenue,Throggs Neck,NY,10465-4198,35620,28,74,1401,1300,101,1,74,26,0,82,7070,16980,9646.6
196413,Syracuse University,2,43.040176,-76.136975,900 South Crouse Ave.,Syracuse,NY,13244,45060,32,59,14778,14167,611,2,29,59,12,90,55920,55920,55919.99999999999
197045,Utica University,2,43.096213,-75.272916,1600 Burrstone Rd,Utica,NY,13502-4892,46540,27.010141987829616,89,2986,2384,602,33,84,15,1,74,22314,22314,22314
197197,Wagner College,2,40.615588,-74.092913,One Campus Rd,Staten Island,NY,10301-4495,35620,27.010141987829616,82,1568,1514,54,0,50,41,6,82,48730,48730,48730
197708,Yeshiva University,2,40.850605,-73.929873,500 W 185th St,New York,NY,10033-3299,35620,27.010141987829616,63,2657,2536,121,0,32,59,10,91,44300,44300,44300
197869,Appalachian State University,1,36.215536,-81.680583,287 Rivers St,Boone,NC,28608,14380,29,85,18555,17418,1137,3,89,10,0,86,4242,19849,5818.464646464647
197911,Barton College,2,35.734376,-77.913867,200 E. ACC Drive,Wilson,NC,27893-7000,48980,23,99,1150,1011,139,14,68,27,6,71,33430,33430,33430
198066,Brevard College,2,35.236763,-82.729494,One Brevard College Drive,Brevard,NC,28712,14820,27.010141987829616,45,770,743,27,0,51,47,2,67,28400,28400,28400
198136,Campbell University,2,35.409149,-78.738238,143 Main Street,Buies Creek,NC,27506,22180,25,87,3325,2766,559,16,78,20,2,74,35580,35580,35580
198303,Chowan University,2,36.436258,-77.099141,One University Place,Murfreesboro,NC,27855,-2,20,79,920,887,33,3,45,49,6,64,25880,25880,25880
198385,Davidson College,2,35.499767,-80.843979,405 N. Main Street,Davidson,NC,28035,16740,27.010141987829616,18,1973,1973,0,0,21,69,11,95,54460,54460,54460
198464,East Carolina University,1,35.607186,-77.368291,East 5th Street,Greenville,NC,27858-4353,24780,27.010141987829616,94,22463,18245,4218,21,86,13,0,81,4452,20729,6589.383838383837
198507,Elizabeth City State University,1,36.277978,-76.214041,1704 Weeksville Rd,Elizabeth City,NC,27909,21020,19,77,1956,1627,329,21,67,29,0,73,1000,5000,2208.3333333333335
198516,Elon University,2,36.104148,-79.50344,100 Campus Drive,Elon,NC,27244-2010,15500,27.010141987829616,78,6302,6125,177,0,19,78,2,88,38218,38218,38218
198543,Fayetteville State University,1,35.073641,-78.891696,1200 Murchison Rd,Fayetteville,NC,28301-4298,22180,19,82,5557,3658,1899,47,87,8,0,63,2982,14590,3959.515789473685
198598,Greensboro College,2,36.071082,-79.800232,815 W Market St,Greensboro,NC,27401-1875,24660,27.010141987829616,88,755,599,156,4,69,31,0,68,18960,18960,18960
198756,Johnson C Smith University,2,35.243033,-80.857251,100 Beatties Ford Road,Charlotte,NC,28216-5398,16740,27.010141987829616,45,1122,1063,59,6,51,48,0,57,16174,16174,16174
198808,Lees-McRae College,2,36.162477,-81.873371,191 Main Street,Banner Elk,NC,28604,-2,26,59,872,841,31,20,50,45,4,67,26267,26267,26267
198835,Lenoir-Rhyne University,2,35.739968,-81.327598,625 7th Avenue NE,Hickory,NC,28601,25860,27.010141987829616,86,1579,1388,191,6,78,16,2,62,41500,41500,41500
198862,Livingstone College,2,35.670877,-80.483956,701 W Monroe St,Salisbury,NC,28144,16740,15,51,890,869,21,12,51,48,1,58,15917,15917,15917
198899,Mars Hill University,2,35.82752,-82.551827,100 Athletic St,Mars Hill,NC,28754,11700,27.010141987829616,80,1026,967,59,3,51,34,9,74,35665,35665,35665
198950,Meredith College,2,35.799351,-78.689995,3800 Hillsborough St,Raleigh,NC,27607-5298,39580,29,70,1427,1373,54,0,85,9,6,82,41104,41104,41104
198969,Methodist University,2,35.135058,-78.874426,5400 Ramsey St,Fayetteville,NC,28311-1420,22180,26,79,1520,1376,144,10,62,33,5,62,36260,36260,36260
199102,North Carolina A & T State University,1,36.07282,-79.773375,1601 E Market  St,Greensboro,NC,27411,24660,22,57,11596,10347,1249,10,66,32,0,77,3540,17050,7951.428571428572
199111,University of North Carolina at Asheville,1,35.617068,-82.565392,One University Heights,Asheville,NC,28804-8510,11700,29,82,3233,2805,428,3,84,14,0,75,4122,21470,6600.285714285716
199120,University of North Carolina at Chapel Hill,1,35.911769,-79.050969,103 South Bldg Cb 9100,Chapel Hill,NC,27599,20500,27,20,19845,18931,914,1,80,15,5,97,7019,34882,11418.42105263158
199139,University of North Carolina at Charlotte,1,35.306022,-80.730919,9201 University City Blvd,Charlotte,NC,28223-0001,16740,26,79,24116,20654,3462,8,90,8,1,85,3812,17246,4908.65306122449
199148,University of North Carolina at Greensboro,1,36.068236,-79.809414,1400 Spring Garden St,Greensboro,NC,27402-6170,24660,26,91,15178,12625,2553,22,94,5,1,78,4422,19581,5187.606060606061
199157,North Carolina Central University,1,35.974237,-78.898602,1801 Fayetteville Street,Durham,NC,27707,20500,20,76,5892,4770,1122,18,76,23,0,74,3728,16435,6680.1313131313145
199184,University of North Carolina School of the Arts,1,36.076183,-80.235672,1533 South Main St.,Winston Salem,NC,27127-2738,49180,28,30,938,911,27,0,48,48,3,91,6497,23731,15114
199193,North Carolina State University at Raleigh,1,35.785111,-78.674517,2101 Hillsborough Street,Raleigh,NC,27695-7001,39580,32,47,26505,23414,3091,4,85,12,2,94,6535,27320,9106.340206185567
199218,University of North Carolina Wilmington,1,34.225223,-77.875527,601 South College Road,Wilmington,NC,28403-5963,48900,28,68,14488,11849,2639,16,82,17,1,83,4443,18508,6858.202020202019
199281,University of North Carolina at Pembroke,1,34.688313,-79.200347,One University Drive,Pembroke,NC,28372-1510,31300,21,92,6317,4728,1589,36,87,8,2,73,1000,5000,1336.8421052631581
199306,Pfeiffer University,2,35.484696,-80.283168,48380 US Hwy 52N,Misenheimer,NC,28109-0960,10620,25,72,744,719,25,6,76,22,0,69,31160,31160,31160
199412,Queens University of Charlotte,2,35.189051,-80.833509,1900 Selwyn Ave,Charlotte,NC,28274-0001,16740,27,69,1440,1347,93,2,45,43,12,69,37348,37348,37348
199607,Salem College,2,36.086271000000004,-80.241297,601 S Church St,Winston-Salem,NC,27101,49180,21,90,364,276,88,0,79,15,2,62,30500,30500,30500
199698,St. Andrews University,2,34.74563,-79.478567,1700 Dogwood Mile,Laurinburg,NC,28352,29900,27.010141987829616,12,876,846,30,39,32,48,0,60,27730,27730,27730
199999,Winston-Salem State University,1,36.089554,-80.225033,601 Martin Luther King Jr Dr,Winston-Salem,NC,27110-0001,49180,19,81,4726,3961,765,34,84,14,0,76,3401,14057,4923.285714285715
200004,Western Carolina University,1,35.308979,-83.186258,Highway 107,Cullowhee,NC,28723-9646,19000,25,79,10145,8233,1912,21,82,16,1,75,1000,5000,1653.0612244897957
200059,Dickinson State University,1,46.882917,-102.799679,291 Campus Drive,Dickinson,ND,58601-4896,19860,22,99,1337,988,349,20,49,49,2,65,6474,8294,7384
200217,University of Mary,2,46.723767,-100.75274,7500 University Dr,Bismarck,ND,58504,13900,27.010141987829616,79,2579,1856,723,12,34,63,3,77,18340,18340,18340
200280,University of North Dakota,1,47.921654,-97.071738,"264 Centennial Drive, Stop 8193",Grand Forks,ND,58202-8193,24220,26,89,9718,6988,2730,22,39,60,2,77,8882,13323,11573.515151515152
200332,North Dakota State University-Main Campus,1,46.893127,-96.800838,1301  12th Avenue North,Fargo,ND,58108-6050,22020,26,95,10199,9019,1180,4,36,64,0,76,8951,13426,11815
200572,Valley City State University,1,46.918517,-98.00389,101 College St SW,Valley City,ND,58072,-2,23,81,1523,819,704,18,63,37,1,61,6364,11138,8130.380000000001
201061,Art Academy of Cincinnati,2,39.108805,-84.513913,1212 Jackson Street,Cincinnati,OH,45202-1706,17140,27.010141987829616,100,234,221,13,2,61,39,0,59,33400,33400,33400
201195,Baldwin Wallace University,2,41.373017,-81.851145,275 Eastland Rd,Berea,OH,44017-2088,17460,27,79,2840,2687,153,1,76,24,0,82,35366,35366,35366
201441,Bowling Green State University-Main Campus,1,41.375513,-83.640896,220 McFall Ctr,Bowling Green,OH,43403,45780,25,79,14465,11915,2550,7,88,11,1,78,10776,18765,11663.666666666668
201548,Capital University,2,39.954875,-82.937867,1 College and Main,Columbus,OH,43209-2394,18140,25,74,2090,2010,80,1,89,8,2,79,38928,38928,38928
201645,Case Western Reserve University,2,41.507419,-81.609596,10900 Euclid Ave,Cleveland,OH,44106,17460,35,30,5792,5661,131,0,17,67,15,94,54020,54020,54020
201654,Cedarville University,2,39.749237,-83.814692,251 N. Main Street,Cedarville,OH,45314-0601,19430,29,62,4191,3597,594,13,35,63,2,86,33174,33174,33174
201885,University of Cincinnati-Main Campus,1,39.131159,-84.51428,2624 Clifton Avenue,Cincinnati,OH,45221-0063,17140,29,85,28968,24125,4843,15,79,17,5,87,10099,25433,12814.395833333334
202046,Cleveland Institute of Art,2,41.510435,-81.602416,11610 Euclid Avenue,Cleveland,OH,44106-1710,17460,26,66,580,570,10,0,62,38,1,90,42530,42530,42530
202073,Cleveland Institute of Music,2,41.512444,-81.608878,11021 East Blvd,Cleveland,OH,44106-1776,17460,27.010141987829616,33,208,208,0,0,11,78,11,100,40000,40000,40000
202170,Columbus College of Art and Design,2,39.966074,-82.989479,60 Cleveland Ave.,Columbus,OH,43215,18140,27.010141987829616,94,976,962,14,4,70,30,0,82,36500,36500,36500
202480,University of Dayton,2,39.739547,-84.176113,300 College Park,Dayton,OH,45469,19430,29,81,8637,8285,352,0,55,44,2,88,44890,44890,44890
202523,Denison University,2,40.071505,-82.523272,100 West College Street,Granville,OH,43023,18140,32,28,2321,2307,14,0,21,62,17,87,57500,57500,57500
202763,The University of Findlay,2,41.053344,-83.652313,1000 North Main Street,Findlay,OH,45840-3653,22300,26,84,3778,2164,1614,5,76,24,0,88,35878,35878,35878
203085,Heidelberg University,2,41.114833,-83.168387,310 E Market St,Tiffin,OH,44883-2462,45660,24,86,1054,1015,39,5,82,17,1,70,32900,32900,32900
203368,John Carroll University,2,41.491321,-81.531338,1 John Carroll Boulevard,University Heights,OH,44118-4538,17460,30,88,2660,2591,69,0,71,28,0,86,43740,43740,43740
203517,Kent State University at Kent,1,41.146653,-81.342533,"Executive Office, 2nd Floor Library",Kent,OH,44242-0001,10420,25,87,21133,16988,4145,25,80,18,0,81,11000,19876,12630.285714285716
203775,Malone University,2,40.825662,-81.376863,2600 Cleveland Avenue NW,Canton,OH,44709-3308,15940,24,78,1018,796,222,14,85,14,1,72,32400,32400,32400
203845,Marietta College,2,39.41668,-81.450045,Irvine Bldg,Marietta,OH,45750,31930,24,83,1173,1105,68,0,72,27,0,67,36410,36410,36410
203960,Mercy College of Ohio,2,41.658319,-83.552538,2221 Madison Avenue,Toledo,OH,43604-1132,45780,21,41,1224,306,918,30,85,15,0,76,16200,16200,16200
204194,Mount Vernon Nazarene University,2,40.372901,-82.471074,800 Martinsburg Rd,Mount Vernon,OH,43050-9500,34540,25,87,1699,1359,340,23,86,11,3,78,23483,23483,23483
204200,Mount Saint Joseph University,2,39.095893,-84.639453,5701 Delhi Rd,Cincinnati,OH,45233-1670,17140,27,63,1475,1013,462,1,72,28,0,72,32100,32100,32100
204468,Notre Dame College,2,41.506894,-81.516617,4545 College Rd,Cleveland,OH,44121-4293,17460,22,82,1376,953,423,15,63,29,8,61,30650,30650,30650
204635,Ohio Northern University,2,40.7662,-83.827441,525 S. Main St,Ada,OH,45810-1599,-2,28,69,2426,2158,268,0,81,18,1,86,34390,34390,34390
204796,Ohio State University-Main Campus,1,39.999324,-83.014853,190 N. Oval Mall,Columbus,OH,43210,18140,32,57,47106,43057,4049,6,69,23,8,94,11018,34101,16788.75
204857,Ohio University-Main Campus,1,39.326798,-82.100985,020 Chubb Hall,Athens,OH,45701-2979,11900,27,89,18399,14327,4072,24,83,16,1,81,12840,22810,14451.31313131313
204936,Otterbein University,2,40.125327,-82.936444,1 South Grove Street,Westerville,OH,43081,18140,26,83,2253,2102,151,1,87,13,0,80,33224,33224,33224
206437,Walsh University,2,40.873908,-81.369931,2020 East Maple St,North Canton,OH,44720-3396,15940,26,80,1639,1377,262,10,79,13,8,71,30205,30205,30205
206507,Wilmington College,2,39.444744,-83.818342,1870 Quaker Way,Wilmington,OH,45177,48940,23,87,1032,982,50,4,84,13,3,68,27720,27720,27720
206589,The College of Wooster,2,40.81046,-81.934674,1189 Beall Avenue,Wooster,OH,44691,49300,32,61,1968,1947,21,0,34,52,14,80,55050,55050,55050
